hut_index,name,latitude,longitude,tourism,capacity,beds,capacity:persons,access,operator,website,reservation,opening_hours,include_in_evaluation
289,13 Etoiles,46.0977890,7.2244430,chalet,,,,,,,,,0
1528,Aarbiwak,46.5555280,8.152229999999999,wilderness_hut,17,,,,SAC Pilatus,https://www.sac-pilatus.ch/,,,1
861,Abanico,46.9603870,10.398448000000000,chalet,,,,,,,,,0
1185,Abendfloh,46.3879920,8.06062300000000,chalet,,,,,,,,,0
1167,Abendstern,46.411887999999998,8.10267100000000,chalet,,,,,,,,,0
1214,Abraxas,46.3876190,8.062341000000000,chalet,,,,,,https://reka.ch,,,0
441,Abwasserpumpwerk,46.705167,7.9025680,chalet,,,,,,,,,0
353,Ada/Zarmant,46.0952170,7.2367220,chalet,,,,,,,,,0
687,Adlerhorst,46.381422000000001,7.626218000000000,chalet,,,,,,,,,0
357,Agate,46.0928270,7.2339630,chalet,,,,,,,,,0
155,Agritourisme,46.18181,7.423481,chalet,,,,,,,,,0
654,Agroturismo Palü,46.372991,10.0277710,alpine_hut,,,,,,,,,0
507,Ai Ronchetti,46.4298000,8.9715810,chalet,31,,,,,https://www.gruppenhaus.ch/de/haus/gruppenhaus/ai_ronchetti/305,,,1
635,Al Forno Vacanze,46.1775320,8.6938740,chalet,,,,,Al Forno Vacanze,https://al-forno.ch,,,0
745,Albert-Heim-Hütte SAC,46.608922999999997,8.463577000000001,alpine_hut,64,,,,SAC - CAS,https://www.albertheimhuette.ch,,,1
1170,Alexandra,46.7834500,9.686042000000000,chalet,,,,,,,,,0
300,Alhena,46.1029880,7.2239370,chalet,,,,,,,,,0
354,Aline,46.1036940,7.2300100,chalet,,,,,,,,,0
337,Allmi / Läger,46.7344680,7.8545570,alpine_hut,,,,,,,,,0
1106,Almagelleralp,46.10112700,7.984774000000000,alpine_hut,,,,,,,,,0
639,Almagellerhütte,46.1076060,8.0076730,alpine_hut,120,,,,,http://www.almagellerhuette.ch,,,1
1103,Alp Bommen,47.28914800,9.419060000000000,alpine_hut,24,,,,,https://www.alpbommen.ch/,yes,"May-Oct Mo-Su,PH sunrise-sunset; Nov-Apr closed",1
612,Alp Bösbächi,46.9705740,9.0036140,alpine_hut,,,,,,,,,0
448,Alp Dadens,46.8197990,9.2081870,alpine_hut,,,,,,,,,0
1273,Alp Dros Bunom,46.65260300,10.014574000000000,alpine_hut,,,,,,,,,0
608,Alp Fessis Oberstafel,47.0163740,9.1220480,alpine_hut,,,,,,,,,0
607,Alp Fitteren,46.9788530,9.1843880,alpine_hut,,,,,,,,,0
1118,Alp Gamchi,46.530276999999998,7.787433000000000,alpine_hut,,,,,,,,Mo-Su 09:00-17:00,0
141,Alp Giop,46.4960650,9.820307,alpine_hut,,,,,,,,,0
417,Alp Grat,46.8464610,8.585697,alpine_hut,24,,,,,https://www.alp-grat-surenenpass.ch/,,09-15-30,1
836,Alp Grosser Schwyberg,46.70376800,7.270396000000000,alpine_hut,,,,,,http://www.grosserschwyberg.ch,,Tu-Fr 10:00-23:00; Sa-Su 09:00-23:00,1
653,Alp Grüm,46.3744930,10.0312300,alpine_hut,,,,,,,,,0
613,Alp Guppen,46.9982370,9.0394440,alpine_hut,20,,,,,https://www.schwanden-gl.ch/,,,0
615,Alp Hinterschlatt,47.0066240,8.929455,alpine_hut,,,,,,,,,0
1427,Alp Hohbiel,46.80838500,8.49584200,alpine_hut,,,,,,https://www.alp-hobiel-surenen.ch/,,,0
610,Alp Krauchtal,46.9848470,9.2256510,alpine_hut,,,,,,,,,0
650,Alp Languard,46.4877160,9.9217300,alpine_hut,,,,,,,,,0
1143,Alp Muot Selvas,46.379047000000000,9.78833800000000,alpine_hut,,,,,,,,,0
616,Alp Mühlebach Oberstafel,47.0284730,9.2045010,alpine_hut,,,,,,,,,0
886,Alp Nadéls,46.716551000000003,8.98893900000000,alpine_hut,,,,,,,,,0
145,Alp Natons,46.4928280,9.652005,alpine_hut,,,,,,,,,0
142,Alp Nova,46.5047790,9.8289580,alpine_hut,,,,,,,,,0
1363,Alp Nurdagn,46.6184610,9.343669000000000,alpine_hut,,,,,,,,,0
606,Alp Oberblegi,46.9835000,9.0166840,alpine_hut,,,,,Andrea & Franz Weber,,,,0
675,Alp Oberchäseren,47.177968999999997,9.128825000000001,alpine_hut,,,,,,https://www.alp-oberchaeseren.ch,,,0
212,Alp Oberwirtneren,46.7194470,7.4710290,alpine_hut,,,,,,,,,0
609,Alp Ramin,46.9387770,9.2268580,alpine_hut,,,,,,,,,0
958,Alp Rohr,47.27583200,9.484837000000001,alpine_hut,,,,,,https://alp-rohr.ch,yes,"May,Oct Fr-Su 14:00-23:00; Jun-Sep Mo-Sa 14:00-23:00; Jun-Sep Su 14:00-19:00",0
168,Alp Schrina,47.1411650,9.2614110,alpine_hut,,,,,,https://alp-schrina.ch/,,,0
768,Alp Somtgant,46.5831120,9.55239700000000,alpine_hut,,,,,,,,,0
338,Alp Spilau,46.9244720,8.6913110,alpine_hut,,6,,,Familie Furrer-Gisler,https://www.alp-spilau.ch/,required,,0
140,Alp Suvretta,46.491475,9.7944500,alpine_hut,,,,,,,,,0
611,Alp Talalp-Spanegg,47.1014410,9.1353280,alpine_hut,,,,,,,,,0
631,Alp Tschingelfeld,46.6841120,8.0410260,alpine_hut,,6,,,Fam. Grossmann,https://www.tschingelfeld.ch/,required,Jul-Aug Mo-Su,0
923,Alp Tschingla,47.14837000,9.294670999999999,alpine_hut,28,,,,,https://www.tschingla.ch,,"May-Oct Mo-Su,PH sunrise-sunset; Nov-Apr closed",1
1425,Alp Vaüglia,46.58854600,10.029007000000000,alpine_hut,,,,,,,,,0
216,Alp Wisliboda,47.1252280,9.4475300,alpine_hut,,,,,,,,,0
1570,Alp Zavretta,46.593417000000002,9.797176000000000,alpine_hut,,,,,,,,,0
1142,Alp da Segl,46.393172000000000,9.775722000000000,alpine_hut,,,,,,,,,0
1473,Alp de Broieta,46.26835600,9.232023999999999,wilderness_hut,,,,,,,,,0
1472,Alp di Agnon,46.2396070,9.225505000000000,wilderness_hut,4,,,,,,,,1
133,Alp di Fora,46.297043,9.1392060,alpine_hut,16,,,,,https://sentiero-calanca.ch/hutten-am-weg/#RifugioAlpDiFora,,,1
614,Alp Ämpächli Oberstafel,46.9224710,9.1429950,alpine_hut,,,,,,,,,0
999,Alpage de L'Au d'Arbignon & Plex,46.1882500,7.058208000000000,alpine_hut,,,,,,http://www.gitealpageauarbignon.ch/index.html,,,0
794,Alpage et buvette de La Louère,46.1951240,7.476824000000000,alpine_hut,,,,,,,,,0
1478,Alpe Bolla,46.03697400,9.00772300000000,alpine_hut,,10,,,,http://www.lugano-tourism.ch/it/54/alpe-bolla.aspx?idActivity=723&idMod=41,,"""aperto da maggio a ottobre""",1
462,Alpe Zanutsch Vordersäss,46.8974280,9.6227540,alpine_hut,,,,,,,,,0
1013,Alpenblick,46.806641999999997,7.713041000000000,chalet,,60,,,,https://alpenblick-schwarzenegg.ch/,required,,1
425,Alpenheim,47.0421660,8.465048,chalet,,,,,Alpenfreude Weggis,https://alpenfreunde.ch/alpenheim/alpenheim,required,,0
214,Alpenloft,46.816083,10.336317,chalet,,,,,Swissroof GmbH,,,,0
1355,Alpenruh,46.30361200,8.0387280,chalet,,,,,,,,,0
645,Alpgschwänd,46.9857210,8.2685400,alpine_hut,,,,,,,,,0
1183,Alpha,46.388241999999998,8.060981000000000,chalet,,,,,,,,,0
916,Alphütte Gross Feldrederten,47.127426000000000,8.9576760,alpine_hut,8,,,,,http://feldrederten.ch/,yes,May-Sep,1
1153,Alphütte Langboden,46.906703999999998,8.349522000000000,chalet,,,,,,https://www.alphuette-langboden.ch/,,,0
1083,Alphütte Zurbrügg,46.457856000000000,7.512745000000000,chalet,,,,,Edith und Christian Zurbrügg,https://adelboden-lenk-kandersteg.ch/buchen/unterkuenfte-detailseite/detail/alphutte-zurbrugg-1,,Sep-Jun,0
649,Alpina Hütte,46.508526,9.8142210,alpine_hut,,,,,,,,,0
1043,Alpwirtschaft Leser,47.2205720,9.261161000000000,alpine_hut,,,,,,,,Alpsaison,0
414,Alpwirtschaft Roggenloch,46.982965,8.8542110,alpine_hut,,,,,,http://www.roggenloch.ch,,"Jun 1-Oct 15 08:00-24:00; ""Anfang und End der Saison ist jedes Jahr anders.""",0
451,Alpwirtschaft Rychenbärgli,46.4812930,7.6463980,alpine_hut,,,,,,,,,0
1011,Altelshütte,46.4561320,7.647897000000000,alpine_hut,,,,,SAC,,,,1
1482,Alti Schmittä,47.0343070,8.435250999999999,chalet,,,,,,https://www.altischmitte.ch/,,,0
294,Amadouvier,46.091132,7.2327720,chalet,,,,,,,,,0
1179,Ambiente - A,46.3881920,8.060491000000001,chalet,,,,,,,,,0
1643,Ambiente - B,46.38847200,8.060814000000001,chalet,,,,,,,,,0
1545,Amis de la Nature Raimeux,47.30297900,7.423419000000000,chalet,,,,,,,,,0
558,Ammertenhütte,46.4258910,7.514801,alpine_hut,8,,,,SAC,,,,1
992,Anenhütte,46.45453100,7.911712000000000,alpine_hut,50,,,,"Melanie Tscherrig, Christian Tscherrig",https://www.anenhuette.ch/,,,1
263,Annelies,46.1041130,7.2269040,chalet,,,,,Bramble Ski,,,,0
233,Anzonico,46.431355,8.8624280,chalet,,,,,,,,,0
107,Apart Chasina,46.9596930,10.4042430,chalet,,,,,,https://www.soliva.ch/,,,0
1619,Arboretum de Riex,46.554768000000003,6.768941000000000,wilderness_hut,50,,,permit,Commune de Riex,http://sallesbel.primetechnologies.ch/Salles/Details/8175?description=Abri%20forestier%20de%20l%27Arboretum&place=Chemin%20de%20la%20Rochette%2022%2C%201072%20Forel%20%28Lavaux%29&tariflie=2067&tarifLieHabitant=2068,required,,1
92,Arche Ruchenberg,47.0019920,8.5390300,chalet,42,42,,,,https://arche-stiftung-ruchenberg.ch/,required,,1
1178,Arvine,46.3878800,8.060397999999999,chalet,,,,,,,,,0
463,Auberge et Restaurant du Pont de Nant,46.25199,7.1105260,alpine_hut,,,31,,,https://aubergedupontdenant.ch/,,May 10-31 We-Su 09:00-22:00; Jun 01-Sep 21 09:00-22:00; Sep 22-Nov 02 Th-Su 09:00-22:00; Dec 27-Mar 08 We-Fr off,1
595,Auf den Spuren des Alpzigers,47.0680910,8.9890640,alpine_hut,,,,,Ueli Schlittler,,,,0
349,Aurora,46.104037,7.2374540,chalet,,,,,,,,,0
1087,Auta Chia,46.66736200,7.226931000000000,alpine_hut,,,,,,https://hauta-chia.ch/,,,0
225,Auto Rüegg AG,47.3808030,9.0893150,chalet,,,,,,https://auto-ruegg.ch/,,Mo-Fr 07:00-17:00,0
1670,Avero Lodge,46.9600970,10.399611999999999,chalet,,4,,,,,,,0
512,B&B Vallon de l'Aubonne,46.508086,6.3707390,chalet,,,,,,,,,0
375,Backi,47.2626890,7.444452,alpine_hut,,,,,SAC Weissenstein,,,,1
1232,Badushütte SAC Manegg,46.6365680,8.668407999999999,alpine_hut,,,,,SAC - CAS,https://www.badushuette.ch/,,Jul-Sep,1
340,Baita Scoiattoli,46.0622230,9.0287290,wilderness_hut,,,,,Gruppo Scoiattoli dei Denti della Vecchia,https://www.scoiattoli.ch/baitahome.php,,,1
197,Baita del Luca,46.0633610,9.0281590,wilderness_hut,16,,,,CAS Sezione Ticino,https://www.casticino.ch/capanne.php?show=luca,,,1
1027,Balmhornhütte,46.4512070,7.689620000000000,alpine_hut,,,,,SAC - CAS,,,,1
418,Balmhütte,46.719719,7.8934150,alpine_hut,,,,,Skiklub Ringgenberg,http://www.skiclub-ringgenberg.ch/balmhuette.htm,,,1
490,Baltschiederklause,46.3949830,7.8897950,alpine_hut,,,,,SAC - CAS,https://www.rhone.ch/baltschiederklause,,,1
335,Bammerthütte,47.2451220,8.0956120,chalet,,,,,,,,,1
748,Bannegghütte,47.2810080,8.5636400,wilderness_hut,18,,,permit,Holzkorporation Bannegg,,required,,1
392,Bargis,46.8855450,9.8704420,chalet,,,,,,https://fewobargis.jimdofree.com/,,,0
1488,"Basler Ferienhaus ""Bim Lerch""",46.861182999999997,9.887200000000000,chalet,,,,,"Verein Basler Ferienhaus ""Bim Lerch"", Klosters",https://www.basler-ferienhaus-klosters.ch/,,,0
1531,Baumhaus Thurgau,47.5036360,9.21089900,chalet,,,,,,https://www.baumhaus-thurgau.ch/,,,0
1215,Bava,46.3875,8.062098000000001,chalet,,,,,,,,,0
260,Beau Vallons,46.0950550,7.2261850,chalet,,,,,,,,,0
705,Beausite,46.8703080,6.7491760,chalet,,,,,,,,,0
292,Bella Coola,46.0971120,7.2337870,chalet,,,,,,,,,0
1021,Bergblick,47.196570000000001,9.33759700,chalet,,,,,Berg & Bett Betriebs AG,https://booking.bergundbett.ch/vermietung/ferienhaus-wildhaus-bergblick-437836.html,,,0
1154,Bergerie du Haut,47.135210000000001,7.148968000000000,alpine_hut,,,,,,,,,0
165,Berggasthaus Aescher-Wildkirchli,47.2833950,9.4144540,alpine_hut,,,,,,,yes,"May-Oct: Mo-Su 07:30+ ""Warme Küche von 11 bis 20.30 Uhr""; Nov: Mo-Su 8:00-20:00 ""Warme Küche von 11 bis 19.30 Uhr""; Dec-Apr closed",1
681,Berggasthaus Alter Säntis,47.249602000000003,9.34429100000000,alpine_hut,,,,,Ruedi und Claudia Manser-Abderhalden,https://www.altersaentis.ch/,,May-Oct,1
1411,Berggasthaus Bannalpsee,46.86986700,8.428010000000000,alpine_hut,,,,,,,,,1
1147,Berggasthaus Dürrboden,46.720868000000003,9.921830000000000,alpine_hut,,,,,,https://www.duerrboden.ch/,,Th-Mo 09:00-17:00,1
956,Berggasthaus Ebenalp,47.2832790,9.411686000000000,alpine_hut,,,,,,https://www.gasthaus-ebenalp.ch/,,,1
3,Berggasthaus Gumen,46.9562200,8.9848060,alpine_hut,,,,,,https://gumen.ch/,,,1
888,Berggasthaus Haldigrat,46.90308500,8.439838000000000,alpine_hut,,,,,,https://www.haldigrat.ch/,,,1
1608,Berggasthaus Heimeli,46.81554800,9.767942000000000,alpine_hut,,,,,,https://www.heimeli.swiss,,,1
922,Berggasthaus Lüsis,47.13518500,9.330149000000000,alpine_hut,,,,,,https://berggasthaus-luesis.ch/,,,1
948,Berggasthaus Mesmer,47.2594290,9.373096000000000,alpine_hut,,,,,Monika und Bruno Hehli-Räss,https://www.mesmer-ai.ch/,,,1
963,Berggasthaus Plattenbödeli,47.2742630,9.457185000000001,alpine_hut,94,,,,Familie Inauen-Arnold,https://www.plattenboedeli.ch/,,"Jan-Feb,Apr Sa-Su; May-Oct Mo-Su; Nov-Dec closed",1
891,Berggasthaus Rotsteinpass,47.243060999999997,9.365119000000000,alpine_hut,80,,,,Cäcilia und Albert Wyss-Räss,https://www.rotsteinpass.ch/,,,1
949,Berggasthaus Schafboden Alpstein,47.237378,9.350565000000000,alpine_hut,,,,,,,,,1
964,Berggasthaus Tierwies,47.2486860,9.328839000000000,alpine_hut,50,,,,Familie Schoop,https://www.tierwies.ch/,yes,"Jul 01-Oct 15 Mo-Su,PH sunrise-sunset; Oct 16-Jun 30 closed",1
6,Berggasthaus Trift,46.0300390,7.7210710,alpine_hut,48,,,,Familie Hugo und Fabienne Biner,http://www.zermatt.ch/trift,,Jun-Sep,1
126,Berggasthaus Tschingelhorn,46.523176,7.8933300,alpine_hut,,,,,,https://tschingelhorn.ch/,,,1
882,Berggasthaus Urnerstafel,46.8689550,8.443054999999999,alpine_hut,,,,,,,,,1
34,Berghaus Diavolezza,46.4122410,9.96505,alpine_hut,170,,,,,https://www.diavolezza.ch/,,,1
724,Berghaus Grindelwaldblick,46.589374999999997,7.96065700000000,alpine_hut,66,,,,,https://www.grindelwaldblick.ch/,,,1
1307,Berghaus Hahnenbühl,46.94587300,8.994199999999999,chalet,,,,,,https://www.ferienhaus-braunwald.ch/,,,1
1140,Berghaus Männdlenen,46.66892000,7.968862000000000,alpine_hut,30,,,,,https://berghaus-maenndlenen.ch/,,,1
1042,Berghaus Oberaar,46.548936,8.277518000000001,alpine_hut,,,,,KWO Kraftwerke Oberaar,https://www.grimselwelt.ch/grimselhotels/oberaar/,,,1
597,Berghaus Pragelblick,46.9905980,8.8423420,alpine_hut,,,,,,https://www.trekking.ch/events/berghaus-pragelblick,,,1
492,Berghaus Unterbärgli,46.5060680,7.7332140,alpine_hut,,,,,,,,,1
1393,Berghaus Vereina,46.81418800,9.982709000000000,alpine_hut,50,,,,,https://www.berghausvereina.com/,,,1
1320,Bergheim Parmort,47.04816700,9.36146200000000,chalet,,,,,,,,,1
1062,Bergheim STB,46.73279300,7.450908000000000,chalet,,40,,,GantrischPlus AG,https://www.stb.ch/bergheim/,,,1
346,Bergheim Wildgrimmi,46.5529240,7.4625130,alpine_hut,,,,private,Vereinigung Bergheim Wildgrimmi,https://www.bergheim-wildgrimmi.ch/,,,1
211,Berghof Montpelon,47.260142,7.4535250,chalet,,6,,,,,,,1
164,Berghotel Obersteinberg,46.5181560,7.88549,alpine_hut,,,,,,,,,1
640,Berghütte Hohsaas,46.1392280,7.9917700,alpine_hut,,,,,,https://www.hohsaashuette.ch,,,1
473,Berglialp,46.9529460,9.151492,alpine_hut,,,,,,http://www.berglialp.ch,,,0
1187,Bergliebe,46.38787800,8.060950999999999,chalet,,,,,,,,,0
1385,Berglihütte,46.56679500,8.020538000000000,alpine_hut,,,,,SAC - CAS,,,,1
1193,Bergrestaurant Farneralp,47.28513400,8.956967000000001,alpine_hut,,,,,,https://farneralp.ch/,,"Fr-Mo 09:30-17:00, Fr,Sa 17:00-19:00 open ""nur in der Haupsaison"", Su,Mo 17:00-18:00 open ""nur in der Hauptsaison""; Nov 24-Dec 18,Feb 18-Mar 14,Jul 07-Aug 07 off ""Ferien""; PH off",1
1038,Bergrestaurant Kreuzboden,46.13858800,7.963247000000000,alpine_hut,,,,,,,,Mo-Su 09:00-16:15,1
410,Bergrestaurant Sunniggratli,46.7834510,8.6340030,alpine_hut,25,,,,,https://www.sunniggrathuette.ch/,,,1
1486,Bergschulheim Casoja,46.743580000000001,9.549685999999999,chalet,,,,,,https://www.casoja.ch/,,,0
762,Bergseehütte SAC,46.65739400,8.484945000000000,alpine_hut,65,,,,SAC - CAS,http://www.bergsee.ch,,,1
1001,Bergsportschule Grischa,46.45870600,9.53703600,chalet,,,,,,https://bergsportschulegrischa.ch,,,0
1190,Beta,46.388395,8.061387000000000,chalet,,,,,,,,,0
299,Bibi,46.1101320,7.2280880,chalet,,,,,,,,,0
1428,Bietschhornhütte,46.39500400,7.81703000,alpine_hut,22,,,,,https://bietschhornhuette.ch/,,,1
1345,Bifertenhütte,46.81449200,9.026484000000000,alpine_hut,,,,,AACB Akademischer Alpenclub Basel,https://biferten.ch/,,,1
513,Bijou-Sitterblick,47.5017300,9.2614980,chalet,,,,,Adi + Theo Brunner,https://swissyurt.ch/ferienhaus-bijou-sitterblick/,required,,0
976,Billistübli,46.5706320,9.365883999999999,chalet,,,,,,,,,0
402,Binntalhütte,46.3747090,8.2918140,alpine_hut,50,,,,SAC CAS,https://cabane-binntal.ch/,,,1
1224,Biohof Schmid,47.228160000000003,9.148955000000001,chalet,,,,,Anita und Andreas Schmid,https://www.biohof-schmid.ch/,,,0
1271,Bivacco Alpe Agario,46.06838000,8.859211999999999,wilderness_hut,3,,,yes,Malcantone Turismo,,,,1
1458,Bivacco Colombo Aurora Bijelich,46.35874100,9.831212000000001,wilderness_hut,8,,,yes,,,,,1
1595,Bivacco Curciusa,46.459130000000002,9.243975000000001,wilderness_hut,11,,,,GPS delle Cime,https://curciusa.herokuapp.com,yes,,1
571,Bivacco Piano della Parete,46.4382420,9.07951,wilderness_hut,,,,,,https://www.patriziatobiasca.ch/,,,1
1160,Bivouac Envers des Dorées CAS,45.9797670,7.0487529999999996,wilderness_hut,,,,,,,,,1
732,Bivouac de Bella Tola,46.239924999999999,7.648509000000000,wilderness_hut,,,,,,,,,1
1442,Bivouac du Dolent,45.92726200,7.069006000000000,alpine_hut,12,,,,"CAS, section de la Gruyère - Bulle",https://www.cas-gruyere.ch/fr/cabanes/bivouac-du-dolent/,,,1
48,Biwak am Grassen,46.7702360,8.4467510,wilderness_hut,,,,,SAC - CAS,,recommended,,1
416,Blackenalp,46.825555,8.5151580,alpine_hut,,,,,,,,Jun-Sep,0
683,Blattlihütte,46.394482000000004,7.4493400000000003,wilderness_hut,,,,,,,,,1
1470,Blinnensand,46.466912000000001,8.246594000000000,chalet,,,,,,,,,0
565,Blüemlisalphütte,46.5101560,7.7716380,alpine_hut,100,,,,SAC - CAS,http://www.bluemlisalphuette.com,,,1
1500,Bodenweidli,47.208117999999999,9.358134000000000,chalet,,,,,,,,,0
149,Bois Gentil,46.0908590,7.2328240,chalet,,,,,,,,,0
1626,Bois de Caboules,46.5463820,6.188941000000000,wilderness_hut,,4,,,,,,,1
306,Boissières,46.0902640,7.2316200,chalet,,,,,,,,,0
328,Bonvernier,46.0910410,7.2331860,chalet,,,,,,,,,0
662,Bordierhütte,46.1445590,7.8498039999999998,alpine_hut,44,,,yes,SAC,https://bordierhuette.com/,,,1
152,Bortelhütten,46.2938620,8.0933480,alpine_hut,40,,,,Skiklub Brig-Simplon,https://www.bortelhuette.ch/,,,1
303,Bouquetin,46.1033550,7.2223220,chalet,,,,,,,,,0
1211,Brigerblick,46.388665000000003,8.064933000000000,chalet,,,,,,,,,0
31,Brisenhaus,46.9149040,8.4642400,alpine_hut,46,,,,,https://www.brisenhaus.ch/,,,0
15,Britanniahütte,46.0600600,7.9350240,alpine_hut,101,,,,,https://www.britannia.ch/,,,1
1221,Brochhütte,46.6805380,8.138954999999999,alpine_hut,43,,,,SAC Oberhasli,https://www.brochhuette.ch/,,,1
4,Brunnebielhütte,46.3755670,8.2401850,chalet,,,,,,,,,1
122,Brunnialp,46.6257800,7.7817910,alpine_hut,,,,,Skiclub Leissigen,https://www.scleissigen.ch/,,,0
1283,Brunnihütte SAC,46.84087300,8.410638000000001,alpine_hut,40,,,,SAC - CAS,https://brunni.ch/de/detail/brunnihutte,,,1
889,Buechberghuus,47.747307999999997,8.60194500000000,alpine_hut,,43,,,,https://naturfreunde.ch/haeuser/buchberghaus/,required,Sa-Su; PH; SH,0
901,Buntschli,46.713456000000001,7.234631000000000,alpine_hut,,,,,,,,,0
83,Burgerhaus,46.3268010,7.7210780,chalet,,,,,Burgschaft Gampel-Bratsch,,,,0
1523,Burghütte,46.4509940,8.135318000000000,alpine_hut,32,,,,,https://burghuette.ch/,,,1
844,Burlaja,46.69440500,7.277180000000000,alpine_hut,,,,,,,,,0
138,Buvette des Brigands,46.6903400,6.7540430,alpine_hut,,,,,,,,,0
833,Buvette du Gros Cousimbert,46.69706200,7.187242000000000,alpine_hut,,,,,,http://www.cousimbert.ch/,,,0
62,Buvette du Solier,46.8439980,6.5214040,chalet,,,,,,,,,0
1107,Bächlitalhütte SAC,46.5869850,8.2826220000000,alpine_hut,75,75,,,SAC - CAS,http://www.baechlitalhuette.ch,required,,1
1387,Bäregg,46.60045300,8.060039000000000,alpine_hut,,,,,,https://www.baeregg.com/,,May-Oct,1
1360,Bärghuis Frutt,46.77039100,8.28271300000000,chalet,,40,,,Bärghuis Frutt,https://baerghuisfrutt.ch/,,,1
180,Bärghus Gastlosen,46.5955680,7.2837100,alpine_hut,,,,,,http://www.brghs.ch/,,,1
1198,Bärli,46.38931100,8.065714000000000,chalet,,,,,,,,,0
755,CAS Chalet Lacombe,46.388475999999997,7.0431049999999997,alpine_hut,22,,,,Club Alpin Suisse - Diablerets,https://www.cas-diablerets.ch/cabanes/chalet-lacombe/,required,,1
776,CAS Chalet du Mont-d'Amin,47.081716000000000,6.906933000000000,alpine_hut,,,,,CAS La Chaux-de-Fonds,https://cas-chauxdefonds.ch/index.php?option=com_content&task=view&id=9&Itemid=63,,,1
695,CAS Les Alizés,47.02528900,6.955039000000000,alpine_hut,,,,,,,,,1
848,CAS Les Marindes,46.53586500,7.162019000000000,alpine_hut,40,,,,SAC - CAS,https://www.cas-gruyere.ch/fr/cabanes/cabane-des-marindes/,,,1
1544,CEVI Ferienhaus Schneeberg,46.81081800,7.98188400000000,chalet,,,,,,https://ferienhaus-schneeberg.ch/,,,0
484,Ca' in Preonz,46.2789420,8.6750150,chalet,,,,,Beatrice Regazzi,https://ferienwohnungen-tessin.ch/2351,,,0
1699,Cabane 44,46.68933400,7.04175500000000,wilderness_hut,,,,,,,,,0
771,Cabane Barraud,46.2843170,7.16306800,alpine_hut,32,,,yes,Club Alpin Suisse - Section des Diablerets,https://www.cas-diablerets.ch/barraud,recommended,,1
568,Cabane Becs de Bosson,46.1641940,7.5163250,alpine_hut,,,,,,https://www.cabanedesbecs.ch,,,1
68,Cabane Bella-Tola,46.2328880,7.6143010,alpine_hut,,,,,,https://cabanebellatola.ch/,,,1
1554,Cabane Bounavaux,46.533043,7.132371000000000,alpine_hut,,,,,,,,,0
8,Cabane Brunet,46.0303390,7.274198,alpine_hut,56,,,,,https://www.cabanebrunet.ch/,,,1
1079,Cabane CAS du Mont d'Or,46.722751000000002,6.360525000000000,alpine_hut,24,25,,,Club Alpin Suisse,https://www.cas-vallorbe.ch/cabane/,,,1
1081,Cabane Chalet-Neuf,46.18195300,7.068540000000000,alpine_hut,32,,,,,https://www.collonges.ch/,,,1
11,Cabane FXB Panossière,45.9987220,7.2997580,alpine_hut,75,,,,,http://www.panossiere.ch,,,1
1710,"Cabane Forestière ""La Cachotière""",46.676850999999999,6.9400399999999998,wilderness_hut,,,,,,https://www.canapeforestierlesrenardeaux.ch/,,,1
586,Cabane La Luy,46.1264800,7.1737050,alpine_hut,,,,,"Ski-Club ""La Luy""",https://www.skiclublaluy.ch/cabane/,,,1
909,Cabane La Rochette,47.21543800,7.266291000000000,alpine_hut,,,,,CAS,https://www.cas-prevotoise.ch/cabanes/rochette.php,,,1
876,Cabane La Roselière,46.791285999999999,6.640381000000000,chalet,,,,,,https://www.roseliere.ch,,,1
14,Cabane Mont Fort,46.0835570,7.2810530,alpine_hut,58,,,,,https://cabanemontfort.com/,,,1
1030,Cabane Montoz,47.208424000000001,7.217744000000000,alpine_hut,,,,,Club Alpin Suisse - Section Pierre-Pertuis,https://www.cas-pierrepertuis.ch/cabane/,,,1
716,Cabane Perrenoud,46.9183300,6.7238340,alpine_hut,,,,,CAS section Neuchâteloise,,,,1
1000,Cabane Rambert,46.230215000000001,7.134254000000000,alpine_hut,38,,,,Schweizer Alpen Club SAC,https://cas-diablerets.ch/cabanes/cabane-rambert/,,Jun 22 - Sep 30,1
440,Cabane Rochefort,46.4657760,6.146234,alpine_hut,,,,,Club Alpin Suisse La Dôle de Nyon,https://cabane-rochefort.ch,,,1
242,Cabane d'Anthème,46.1657710,6.9042910,alpine_hut,35,,,,Fernand Jordan,https://antheme.ch/,,,1
238,Cabane d'Arpitettaz,46.1008930,7.6793550,alpine_hut,32,,,,SAC CAS,https://www.arpitettaz.ch/,,,1
1137,Cabane d'Essertze,46.14802900,7.371986000000000,alpine_hut,,25,,,,https://essertze.ch/,yes,,1
423,Cabane d'Orny,46.0019130,7.0628120,alpine_hut,83,,,,SAC-CAS Section Diableret,https://cas-diablerets.ch/cabanes/cabane-orny/,,,1
1151,Cabane d'Orny dent de vaulion,46.6765880,6.352641000000000,alpine_hut,,,,,club alpin Suisse sous-section de Morges,https://www.clubalpin.ch/page.php?p=cabane,,,1
564,Cabane de Balavaux,46.1554650,7.2779520,alpine_hut,,,,,,https://www.cabanebalavaux.com/,,,1
1559,Cabane de Berley,46.8096860,7.005719000000000,wilderness_hut,,,,,,,,,1
13,Cabane de Bertol CAS,46.0060310,7.5277860,alpine_hut,80,,,,SAC - CAS Section Neuchateloise,http://www.bertol.ch,,,1
1148,Cabane de Bois Gentil,46.57838800,6.249092000000000,alpine_hut,,,,private,Club Alpin Suisse,http://www.cas-valdejoux.ch/index.php/cabanes-et-refuges/88-cabane-de-bois-gentil,,,1
1155,Cabane de Chanrion,45.93919400,7.380963000000000,alpine_hut,55,,,,,https://www.chanrion.ch/,,,1
525,Cabane de Corminboeuf,46.8001820,7.0880550,wilderness_hut,,,,,,,,,1
471,Cabane de Fromont,47.1994580,6.8820480,wilderness_hut,,4,,yes,,,,,1
1022,Cabane de Gelten SAC,46.3696030,7.339060000000000,alpine_hut,70,,,,SAC - CAS,https://www.gelten.ch/,,,1
865,Cabane de Jaman,46.4539940,6.975236000000000,alpine_hut,,,,,,,,,1
943,Cabane de Louvie,46.0468380,7.306416000000000,alpine_hut,,,,,Bourgeoisie de Bagnes,,,,1
1114,Cabane de Loz,46.34480200,6.79366700,wilderness_hut,,12,,,Club de spéléologie Saint Exupéry du Valais,,,,1
7,Cabane de Mille,46.0136690,7.2065710,alpine_hut,40,,,,,https://www.cabanedemille.ch,,,1
239,Cabane de Moiry,46.0906850,7.5954920,alpine_hut,96,,,,SAC - CAS,https://cabane-moiry.ch/,,,1
1430,Cabane de Montenol,47.3426020,7.144764000000000,chalet,,,45,permissive,Commune de Clos du Doubs,https://closdudoubs.ch/cabane-de-montenol-reservation/,,,1
933,Cabane de Prafleuri,46.0749540,7.37877900000000,alpine_hut,,,,,,http://www.prafleuri.ch/,,,1
567,Cabane de Prarochet,46.3144250,7.247452,alpine_hut,44,,,,,https://www.ski-club-saviese.ch,,,1
1546,Cabane de Raimeux,47.30069200,7.415445000000000,alpine_hut,,,,,CAS Delémont,http://www.cas-delemont.ch/index.php?pg=16,,,1
12,Cabane de Saleinaz CAS,45.9764390,7.0703670,alpine_hut,48,,,,CAS Section Neuchâteloise,https://www.cas-neuchatel.ch/cabanes/cabane-de-saleinaz-2691m/,,,1
1423,Cabane de Sorebois,46.143558,7.6035270,chalet,,,,,,https://www.valdanniviers.ch/fr/P114661/votre-sejour/hebergements/cabane-de-sorebois,,,1
430,Cabane de Sorniot,46.1693150,7.0949150,alpine_hut,46,,,,,http://www.sorniot.ch,,,1
243,Cabane de Susanfe,46.1394270,6.8980980,alpine_hut,71,,,,,https://susanfe.ch/,,,1
663,Cabane de Tracuit CAS,46.13031100,7.6794149999999997,alpine_hut,116,,,,SAC - CAS,https://www.cas-chaussy.ch/,,,1
9,Cabane de Valsorey,45.9303690,7.2717580,alpine_hut,52,,,,,https://www.valsorey.ch/,,,1
1225,Cabane de l'A Neuve CAS,45.9487970,7.066881000000000,alpine_hut,28,,28,,CAS - Section Diablerets,https://cas-diablerets.ch/aneuve,,,1
878,Cabane de l'ASSO,46.7908570,6.639637000000000,chalet,,,,,,https://asso-yverdon.com,,,1
582,Cabane de l'Illhorn,46.2560820,7.5970550,alpine_hut,,,,,,https://cabaneillhorn.ch/,,,1
86,Cabane de l'Écureuil,46.5374590,6.2186360,alpine_hut,,,,,,,,,1
1112,Cabane de la Dent Blanche CAS,46.02024100,7.60090100,alpine_hut,35,,,,SAC - CAS,https://www.cabane-dent-blanche.ch/,,,1
160,"Cabane de la Gymn ""Mont d'Or - Bellevue""",46.7196770,6.357409,chalet,,,,,,,,,1
1683,Cabane de la Rotta,46.50078300,6.8578320000000001,wilderness_hut,50,,,,,https://www.modzon.ch/residence/rotta,,,1
1647,Cabane de la Rèche,46.1901230,7.504209000000000,wilderness_hut,,,,,Consortage de l'Alpage du Tsan,,,,1
753,Cabane de la Tourche,46.2144510,7.061726000000000,alpine_hut,60,,,,,https://www.tourche.ch,,,1
240,Cabane de la Tsa,46.0303480,7.5038160,alpine_hut,32,,,,,https://www.cabtza.com/,,,1
98,Cabane de la Tsissette,45.9537590,7.1554860,alpine_hut,,,,,,https://latsissette.ch/,,,1
773,Cabane de la Videmanette,46.4588630,7.203913000000000,alpine_hut,18,,,,,https://www.cabane-videmanette.net/,,,1
1080,Cabane de la gym C.A.S.,46.7196800,6.357400000000000,alpine_hut,,30,,,,https://fsgvallorbe.ch/,,,1
934,Cabane des Aiguilles Rouges,46.05636700,7.4575469999999999,alpine_hut,70,,,,,https://www.aiguillesrouges.ch/,,,1
573,Cabane des Audannes,46.3434550,7.3840840,alpine_hut,46,46,,,,https://www.audannes.ch/,,,1
1388,Cabane des Clés,46.56774900,7.02485600000000,alpine_hut,,,,,,https://www.cas-gruyere.ch/fr/cabanes/cabane-des-cles/,,,1
28,Cabane des Diablerets,46.3386910,7.2154750,alpine_hut,32,32,,,CAS,https://www.cabane-diablerets.ch/,,,1
935,Cabane des Dix,46.01108300,7.417605000000000,alpine_hut,115,,,,SAC - CAS Sektion Monte Rosa,http://www.cabanedesdix.ch,,,1
719,Cabane des Electriciens,46.5040790,6.152832000000000,alpine_hut,,,,yes,,,,,1
941,Cabane des Gorges,47.2831720,7.382011000000000,alpine_hut,,,,,CAS,,,,1
978,Cabane des Martinaux,46.2145790,7.047939000000000,alpine_hut,,,,,,,,,1
224,Cabane des Monts-Chevreuils,46.4374910,7.0860630,alpine_hut,30,,,yes,,http://www.monts-chevreuils.ch/cabane.html,,,1
1351,Cabane des Monts-de-Pully,46.53314000,6.6781439999999996,wilderness_hut,,,,,,,,,1
853,Cabane des Ordons,47.38610700,7.2227769999999998,alpine_hut,,,,,CAS Jura,,,,1
592,Cabane des Portes,46.5894320,6.9937750,alpine_hut,,,,,,https://www.cas-gruyere.ch/fr/cabanes/cabane-des-portes/,only,,1
546,Cabane des Vignettes CAS,45.9897930,7.4757410,alpine_hut,125,,,,SAC - CAS Sektion Monte Rosa,https://cabane-des-vignettes.ch/,,,1
518,Cabane des Violettes,46.3423830,7.5000490,alpine_hut,24,,,,SAC - CAS,http://www.cabanedesviolettes.ch,,,1
1289,Cabane des bûcherons,46.7971320,7.080724000000000,wilderness_hut,,,,,,,,,1
877,Cabane des éclaireurs,46.7910970,6.640541000000000,chalet,,,,,,https://www.cabanegrandchene.ch/,,,1
1571,Cabane des éclaireuses,46.7909200,6.6404090,chalet,,,,,,https://www.cabanegrandchene.ch/,,,1
1364,Cabane du Cunay,46.5794730,6.288584000000000,alpine_hut,,,,,Club Alpin Suisse,http://www.cas-valdejoux.ch/index.php/cabane-et-refuge/joomla-fr/cabane-du-cunay/78-cabane/72-refuge-du-cunay,,,1
429,Cabane du Demècre,46.1740750,7.0822420,alpine_hut,27,,,,Les Trotteurs de Fully,https://www.demecre.ch/,required,,1
1075,Cabane du Fénestral,46.18896200,7.100644000000000,alpine_hut,34,,,,,https://www.chavalard.com/,,,1
184,Cabane du Grand-Cunay,46.5713180,6.2766730,alpine_hut,,,,,Ski Club Le Brassus,,,,1
1028,Cabane du Mont-Noble,46.2105820,7.47463700000000,alpine_hut,,,,,,https://www.mtnoble.ch/zwook,,,1
474,Cabane du Mountet CAS,46.0600460,7.6535410,alpine_hut,80,,,,SAC - CAS,https://cas-diablerets.ch/,,,1
1695,Cabane du Moutonnier,46.37102100,7.018202000000000,wilderness_hut,,,,yes,,,,,1
1657,Cabane du Peney,46.49817300,6.186643000000000,wilderness_hut,,,,,Commune de Bassins,,,,1
937,Cabane du Petit Mountet,46.092260000000003,7.633304000000000,alpine_hut,,,,,,https://www.petitmountet.ch/,,,1
70,Cabane du Plan du Jeu,45.9024800,7.2055860,alpine_hut,,,,,,,,,1
835,Cabane du Rio de l'Enfer,46.4983200,6.74619100000000,chalet,,,,,,,,,1
1044,Cabane du Scex Carro,46.15756700,7.078992000000000,alpine_hut,18,,,,,https://www.cabaneduscexcarro.ch/,,,1
1150,Cabane du Ski Club de Vallorbe,46.680256000000000,6.349764000000000,alpine_hut,,20,,,ski club vallorbe,http://skiclubvallorbe.ch/,,,1
424,Cabane du Trient,45.9995960,7.0436490,alpine_hut,90,,,,,https://cas-diablerets.ch/cabanes/cabane-du-trient/,,,1
10,Cabane du Vélan,45.9169360,7.2454620,alpine_hut,62,,,,CAS Bourg-Saint-Pierre,https://www.velan.ch/,,,1
1533,Cabane du col de Bostan,46.1354810,6.810168000000000,wilderness_hut,,,,,,,,,1
1082,Cabane du ski-club de Nyon,46.43283400,6.104373000000000,chalet,,,,,Ski-Club de Nyon,http://www.skiclubnyon.ch/cabane,,,0
1632,Cabane forestière La Valletaine,47.408298000000002,7.174484000000000,chalet,,,,,,https://secure.i-web.ch/gemweb/cornol/fr/loisirs/sallesalouer/welcome.php?action=info&id=543,,,1
1445,Cabane forestière du Rond-Bois,47.480054000000003,7.015465000000000,wilderness_hut,,,,,,,,,0
1076,Cabane les Ecoulaies,46.0635670,7.379769000000000,alpine_hut,,,,,,https://www.lespyramides.ch/cabane,,,1
1228,Cabane scoute du Sentier,46.6050030,6.232398000000000,wilderness_hut,,,,,,https://www.asvd.ch/fidev/sentier/,,,1
245,Cabanne de Plan Névé,46.2519800,7.1443680,alpine_hut,35,,,,,http://www.cabane-plan-neve.ch,,,1
1230,Calandahütte,46.883035000000000,9.482198000000000,alpine_hut,29,,,,SAC - CAS,https://www.calandahuette.ch/,,,1
1365,Camaner-Ställi,46.658816,9.281743000000001,alpine_hut,,,,,,,,,0
1539,Camona Vorab,46.861078,9.197808999999999,wilderness_hut,,,,private,,,,,0
56,Camona da Maighels CAS,46.6253630,8.6901240,alpine_hut,83,,,,SAC - CAS,https://www.maighelshuette.ch/,,,1
54,Camona da Medel CAS,46.6405070,8.9138110,alpine_hut,51,,,,SAC - CAS,https://www.medelserhuette.ch,,,1
1229,Camona da Punteglias CAS,46.7772190,8.956075000000000,alpine_hut,30,,,,SAC - CAS,https://www.punteglias.ch/,,,1
946,Camona da Terri,46.6344960,9.005093000000000,alpine_hut,110,,,yes,SAC - CAS,https://www.terrihuette.ch/,,10-15-15,1
1325,Campel Alt,46.330261000000000,9.27168700,alpine_hut,,,,,,,,,0
1326,Campel Bass,46.324187999999999,9.264267000000000,alpine_hut,,,,,,,,,0
621,Campo Cortoi,46.215678,8.8440080,chalet,,,,,,https://www.campocortoi.ch/,,,1
581,Canard,46.0973940,7.2379240,chalet,,,,,,,,,0
1018,Capanna,47.2051840,9.327876000000000,chalet,,,,,Berg & Bett Betriebs AG,https://booking.bergundbett.ch/vermietung/ferienwohnung-wildhaus-capanna-437335.html,,,0
533,Capanna APE Pru Gerli,46.3148430,10.0524250,chalet,,,,,,,,,0
40,Capanna Adula CAS,46.4991790,8.9956130,alpine_hut,24,,,,SAC - CAS,https://capannaadula.casticino.ch,,,1
128,Capanna Adula UTOE,46.4953100,9.0076300,alpine_hut,54,,,,Unione ticinesi operai escursionisti sezione di Bellinzona,https://www.adula-utoe.ch/,,,1
132,Capanna Albagno,46.2224780,8.9564200,alpine_hut,28,,,,UTOE sezione Bellinzona,http://www.utoe.ch,recommended,,1
191,Capanna Alpe Arena,46.2325150,8.5146730,alpine_hut,30,,,,Patriziato di Onsernone,http://www.capanna-arena.ch,,,1
203,Capanna Alpe Masnee,46.2763400,8.7624040,wilderness_hut,12,,,,Patriziato di Maggia,https://www.ticino.ch/de/alpineHuts/details/Bergh%C3%BCtte-Alpe-Masnee/108881.html,,,1
175,Capanna Alpe Saléi,46.220962,8.5623140,alpine_hut,30,,,,Patriziato di Comologno,https://www.alpesalei.ch/,,Mo-Su 10:30-15:00,1
839,Capanna Alpe Sponda,46.41744800,8.786028000000000,alpine_hut,35,,,yes,SAT Chiasso,http://www.satchiasso.ch,,Jan - Jan,1
196,Capanna Alpe d'Alva,46.2999980,8.9527850,wilderness_hut,24,,,,Patriziato di Lodrino,https://www.ticino.ch/alpineHuts/details/13351.html?source=igodigital,yes,,1
1417,Capanna Alpe di Garíss,46.24504200,8.95703300000000,wilderness_hut,20,,,,Patriziato di Preonzo,https://www.ticino.ch/de/alpineHuts/details/Capanna-Gariss/13381.html,,May-Oct,1
1418,Capanna Alpe di Lèis,46.2483480,8.93299800000000,alpine_hut,14,,,,Patriziato di Preonzo,https://www.ticino.ch/de/alpineHuts/details/Capanna-L%C3%A8is/13392.html,,,1
204,Capanna Alpe di Nimi,46.2522280,8.7674820,alpine_hut,15,,,,Pietro Zanoli,https://www.ticino.ch/de/alpineHuts/details/Bergh%C3%BCtte-Nimi/13397.html,,,1
41,Capanna Alzasca,46.2712790,8.5893000,alpine_hut,20,,,,CAS Locarno,http://www.capannaalzasca.ch,,,1
1094,Capanna Anzana,46.23067400,10.075110000000000,alpine_hut,,,,,Gemeinde Brusio,https://www.brusio.ch/cultura-e-tempo-libero/sport-e-svago/capanna-anzana,required,Jun-Oct,1
1529,Capanna Bardughè,46.23823100,8.872196000000001,alpine_hut,,,,,,,,,1
198,Capanna Barone,46.3957470,8.7487570,wilderness_hut,35,,,,Società Escursionistica Verzaschese (SEV),https://www.sev-verzasca.ch/barone,required,,1
42,Capanna Basodino CAS,46.439542,8.514129,alpine_hut,59,,,,SAC - CAS sezione di Locarno,http://www.capannabasodino.ch,,,1
73,Capanna Borgna,46.2295350,8.9250630,alpine_hut,27,,,,Società Escursionistica Verzaschese (SEV),https://www.sev-verzasca.ch/borgna,,,1
1415,Capanna Bovarina,46.560037000000001,8.888605000000000,alpine_hut,40,,,,UTOE sezione di Bellinzona,https://www.bovarina.ch/,,,1
16,Capanna Brogoldone,46.2628800,9.0633220,alpine_hut,57,,,,Associazione Amici Capanna Brogoldone,https://www.capanneti.ch/,yes,Jan - Jan,1
1636,Capanna Buffalora,46.35097900,9.148422000000000,alpine_hut,30,,,,ASAC,https://www.sentiero-calanca.ch/,,,1
22,Capanna Cadagno,46.5465890,8.7196140,alpine_hut,60,,,,SAT Ritom,https://www.capannacadagno.ch/,,,1
199,Capanna Cadlimo,46.571636,8.6952500,alpine_hut,76,,,,CAS Uto Zurigo,https://www.cadlimohuette.ch,,,1
44,Capanna Campo Tencia,46.4442270,8.7326690,alpine_hut,60,,,,CAS Ticino,https://campotencia.casticino.ch,,,1
75,Capanna Cognóra,46.3764710,8.8131780,wilderness_hut,20,,,,Società Escursionistica Verzaschese (SEV),https://www.sev-verzasca.ch/cognora-deutsch,yes,,1
100,Capanna Cornavosa,46.2794390,8.8975660,wilderness_hut,24,,,,Società Escursionistica Verzaschese (SEV),https://www.sev-verzasca.ch/cornavosa,,,1
45,Capanna Corno Gries CAS,46.4670760,8.4100470,alpine_hut,46,,,,CAS Bellinzona e valli,https://www.corno-gries.ch/,,,1
600,Capanna Cremorasco,46.1485850,9.0124960,alpine_hut,10,,,,,https://www.capanneti.ch/de/huetten/cremorasco,,,1
1416,Capanna Cristallina,46.471841,8.526234000000001,alpine_hut,120,,,,CAS Ticino,https://capannacristallina.casticino.ch/,,,1
27,Capanna Dötra,46.5316840,8.8796430,alpine_hut,34,,,,SAT Lucomagno,http://satlucomagno.ch/,yes,May - Oct,1
74,Capanna Efra,46.3384200,8.8514620,wilderness_hut,24,,,,Società Escursionistica Verzaschese (SEV),https://www.sev-verzasca.ch/efra-deutsch,,,1
890,Capanna Gambarögn,46.11232400,8.830555000000000,alpine_hut,,,,,Amis dala Capanna Gambarögn,https://www.capannagambarogno.ch,,,1
200,Capanna Gana Rossa,46.5063460,8.8457080,wilderness_hut,12,,,,UTOE Pizzo Molare,https://www.utoepizzomolare.ch/,,,1
201,Capanna Garzonera,46.4989820,8.6613900,alpine_hut,20,,,,SAT Ritom,https://www.satritom.ch/capanne-sat-ritom/,,,1
227,Capanna Genzianella,46.1790900,9.0622680,alpine_hut,,22,,,Amici della natura Sezione di Bellinzona,https://www.amicidellanatura-lugano.ch/,,,1
21,Capanna Gesero,46.1814050,9.120836,alpine_hut,40,,,,UTOE Bellinzona,http://www.utoe.ch/?id=470,,,1
202,Capanna Gorda,46.4980080,8.9109300,alpine_hut,28,,,,Società Nido d'Aquila,https://www.capannagorda-sanda.ch,,,1
81,Capanna Grossalp,46.316514,8.4712180,alpine_hut,26,,,,UTOE Locarno,http://www.capannagrossalp.ch,,,1
218,Capanna La Ginestra,46.0867230,8.9819460,alpine_hut,28,,,,Amici della Natura Sezione Lugano,https://www.amicidellanatura-lugano.ch/capanna.html,,,1
228,Capanna La Piana,45.8866770,8.9884590,alpine_hut,,30,,,Scout Mendrisio,https://www.scoutmomo.ch/,,,1
97,Capanna Leit,46.4669220,8.7188170,alpine_hut,64,,,,SAT Mendrisio,http://www.capanna-leit.ch,,,1
1085,Capanna Michela Motterascio,46.59336600,9.005492000000000,alpine_hut,72,72,,,CAS Ticino,http://www.capannamotterascio.ch,,10-15-15,1
657,Capanna Miralago,46.2581230,9.2247420,alpine_hut,34,,,,,https://www.valcama.ch/unterkunft_de.html,,,1
130,Capanna Mognone,46.1963950,8.9507600,alpine_hut,12,,,,Patriziato di Sementina,https://www.patriziato-sementina.ch/,,,1
1572,Capanna Monte Bar,46.10000600,9.013994000000000,alpine_hut,44,,,,CAS Ticino,http://www.capannamontebar.ch,,,1
1563,Capanna Neveggio,46.1407910,8.984869000000000,wilderness_hut,30,,,private,Patriziato di S. Antonino,https://www.patriziatosantantonino.ch/capanna-neveggio/,required,,1
131,Capanna Orino,46.1969830,8.9325460,alpine_hut,12,,,,Patriziato di Gudo,https://www.capanneti.ch/de/huetten/orino,,,1
1501,Capanna Osola,46.32749500,8.70441500000000,alpine_hut,18,18,,,,https://capannaosola.ch/,,,1
404,Capanna Pairolo,46.0628320,9.044859,alpine_hut,39,,,,,https://www.capanna-pairolo.ch/,,,1
1420,Capanna Pian d'Alpe,46.394621000000001,8.938504000000000,alpine_hut,37,,,,UTOE Torrone d'Orza,https://www.utoe-biasca.ch/capanna-pian-dalpe,,,1
2,Capanna Piandios,46.4814910,8.884226,alpine_hut,35,,,,Sci Club Crap,http://www.sciclubcrap.ch/index.php/capanna,,,1
190,Capanna Piano delle Creste,46.3910550,8.4871570,alpine_hut,36,,,,Società Alpinistica Valmaggese,https://www.sav-vallemaggia.ch/,,,1
206,Capanna Piansecco,46.4944250,8.4714620,alpine_hut,46,,,,CAS Bellinzona e valli,https://www.capannapiansecco.ch/,,,1
1480,Capanna Poncione di Braga,46.4288070,8.572328000000001,alpine_hut,33,,,,UTOE Locarno,https://www.utoelocarno.ch/,,,1
1485,Capanna Prodör,46.4984130,8.8141390,alpine_hut,42,,,,,https://www.utoepizzomolare.ch/,,,1
119,Capanna Quarnei,46.473108,9.0236540,alpine_hut,58,,,,Società Alpinistica Bassa Blenio,https://quarnei.ch/,,,1
172,Capanna Ribia,46.251334,8.5416040,alpine_hut,12,,,,Patriziato generale d'Onsernone;Patiziato generale d'Onsernone,https://se-im.ch/capanna-ribia/,,,1
231,Capanna Righetti Fibbioli,46.2579900,9.2236730,alpine_hut,,,,,,http://www.valcama.ch/unterkunft_it.html,,,1
1451,Capanna Ristorante Cimetta,46.2006900,8.788841000000000,alpine_hut,27,,,,Sci Club Gardada,https://www.ticino.ch/de/alpineHuts/details/Bergh%C3%BCtte-Cimetta/13373.html,,,1
1133,Capanna San Lucio,46.0864620,9.08914000000000,alpine_hut,22,,,,Propaganda turistica Bogno,https://capannasanlucio.ch/,,Jan-Dec,1
1565,Capanna Sasc Furä,46.3153340,9.582395999999999,alpine_hut,36,,,,SAC - CAS,https://www.sascfura.ch/,,,1
1422,Capanna Scaletta,46.60775200,8.940312000000000,alpine_hut,52,57,,,SAT Lucomagno,https://www.satlucomagno.ch/wordpress/capanna-scaletta/,,,1
181,Capanna Soveltra,46.4060740,8.7109310,alpine_hut,28,,,,SAV Bignasco,https://www.sav-vallemaggia.ch/,,,1
1634,Capanna Starlaresc,46.2736860,8.775634000000000,wilderness_hut,8,,,,,,,,1
1404,Capanna Tamaro,46.108221000000000,8.881098000000000,alpine_hut,60,,,,UTOE Bellinzona,http://www.utoe.ch,,Jun-Oct,1
207,Capanna Tremorgio,46.4816610,8.7248930,alpine_hut,47,,,,Azienda elettrica ticinese,http://www.capannatremorgio.ch,,,1
620,Capanna alpa Canaa,46.2494730,8.6352910,wilderness_hut,20,,,,Associazione Paesaggio Valle di Lodano,https://www.ticino.ch/de/alpineHuts/details/Bergh%C3%BCtte-Alpe-Canaa/137621.html,,,1
1078,Capanna da l'Albigna CAS,46.32994900,9.655243000000000,alpine_hut,88,,,,CAS,https://albigna.ch/,,,1
118,Capanna dei Monti di Lego,46.1988370,8.8317720,alpine_hut,10,,,,Parrocchia di Mergoscia,https://www.fondazioneverzasca.ch/it/46/monti_di_lego.aspx,,,1
1419,Capanna del Pairolo,46.0628070,9.044860000000000,alpine_hut,40,,,,SAT Lugano,https://www.capanna-pairolo.ch,,,1
163,Capanna di Cava,46.3575120,9.0303120,alpine_hut,50,,,,UTOE Torrone d'Orza,https://www.utoe-biasca.ch/capanna-cava,yes,Jun - Sept,1
1541,Capanna di Sciora,46.3125020,9.61111700,alpine_hut,42,,,,SAC - CAS,https://sac-hoherrohn.ch/content/capanna-di-sciora/,,,1
77,Capucine,46.3541720,7.1609110,chalet,,,,,,,,,0
1623,Carmils,46.886006999999999,9.896685000000000,wilderness_hut,,,,,,,,,0
707,Carré,46.87014600,6.749378000000000,chalet,,,,,,,,,0
850,Carschinahütte,47.007081999999997,9.827359000000000,alpine_hut,80,,,,SAC - CAS,https://www.carschina.ch/,,,1
1498,Casa Arancione OTAF,46.52800400,8.91691300000000,chalet,,,,,,,,,0
127,Casa Ariana,46.8367040,9.2941700,chalet,,,,,,,,,0
1341,Casa Bono,46.094838000000003,8.826233999999999,chalet,,,,,,https://lunasole.ch/ferienwohnungen/weitere-ferienwohnungen/casa-bono/,,,0
485,Casa Castagna,46.2794990,8.6750780,chalet,,,,,Nicolas Filipponi,,,,0
1338,Casa Colomba,46.09867900,8.8317520,chalet,,,,,,,,,0
215,Casa Duepassi,46.155465,8.766663,chalet,,,,,,http://www.casaduepassi.ch/,,,0
437,Casa Erla,46.8844870,9.8732770,chalet,,,,,,https://www.vetsch-klosters.ch/de/vermietung/casa-erla,,,0
510,Casa Fondazione OTAF,46.5283100,8.9167900,chalet,,,,,,,,,0
173,Casa Larice,46.2069520,8.8493200,chalet,,,,,,http://rustico-tessin.ch/,,,0
1337,Casa Lucertola,46.09384600,8.826343000000000,chalet,,,,,,https://www.indemini-ferienhaus.ch/home.php?p=home,,,0
1424,Casa Malussi,46.33536300,9.554895000000000,chalet,,,,,,https://ferienimbaudenkmal.ch/casa-malussi/,,,0
1481,Casa Palmetta,45.973363999999997,8.882462000000000,chalet,,,,,,https://www.casa-palmetta.ch/,,,0
563,Casa Pasquali Battaglini,46.0655870,8.9726080,chalet,,,,,,http://www.amicidicagiallo.ch/casa-battaglini-1.html,,,0
1342,Casa Pedroni,46.094805000000001,8.826537999999999,chalet,,,,,,https://lunasole.ch/ferienwohnungen/weitere-ferienwohnungen/casa-pedroni/,,,0
454,Cassiopeia,46.1051030,7.2222640,chalet,,,,,,,,,0
26,Cavardirashütte,46.742437,8.8142690,alpine_hut,70,,,,,https://www.cavardiras.ch/,,,1
1019,Central,47.204073999999999,9.351580999999999,chalet,,,,,Berg & Bett Betriebs AG,https://booking.bergundbett.ch/vermietung/ferienhaus-wildhaus-central-437833.html,,,0
401,Centre Réformé,46.6231460,7.1592960,chalet,,,,,,https://www.centre-reforme.ch/index.php/fr/,,,0
756,Centre de Rencontre et de Jeunesse Les Mottes,47.25009600,7.070777000000000,chalet,,,,,,https://lesmottes.ch/,,,0
1352,Centre de Vacances,46.6186810,7.176704000000000,chalet,,76,,,,,,12-01-31,0
36,Centre de vacances REKA,46.1306830,7.6310930,chalet,,,,,,,,,0
782,Centre scout cantonal,46.59698400,6.685784000000000,chalet,,,,,Fédération Immobilière des Éclaireurs Vaudois (FIDEV),http://www.asvd.ch/fidev/cabanes-terrains/froideville/,,,0
831,Cerniets,46.6377230,7.258859000000000,alpine_hut,,,,,,,,,0
1049,Cesa da Sett,46.4154130,9.636986000000000,alpine_hut,,,,,,https://www.cesa-da-sett.ch/,,Jun-Oct,0
1398,Cevi Ferienheim Rothornblick Flühli,46.87802500,8.0191720000000,chalet,,,,,CVJM / Cevi,https://rothornblick-fluehli.ch/,,,0
329,Ch,46.1038880,7.2295780,chalet,,,,,,,,,0
420,Chadschlag,46.9176420,9.635065,alpine_hut,,,,,,,,,0
758,"Chalet ""Le Pigeonnier""",46.290413999999998,7.095771000000000,chalet,,,,,,,,,0
265,Chalet Alpin Roc,46.1087350,7.2276270,chalet,,,,,,,,,0
1515,Chalet Alpina,46.14149800,7.232968000000000,chalet,,,,,,https://en.alpenchaletsbookings.com/ski-chalets-france-switzerland/?sug_value=alpina&sug_id=110&sug_type=Unterk%FCnfte&sug_was_filled=no&we_id=null&ap_num_persons=null&pageType=searchResult&action=newSearch&langId=3,,,0
1120,Chalet Altitude 1600,46.1737630,7.285600000000000,chalet,,,,,,https://www.chaletaltitude1600.com,,,0
1029,Chalet Amis de la Nature Bellevue,47.2053440,7.212738000000000,chalet,,,,,,,,,0
325,Chalet Angela,46.2876500,7.7946560,chalet,,,,,,,,,0
1259,Chalet Anne-Sophie,46.1448770,7.238026000000000,chalet,,,,,4vallees4saisons.com,https://www.4vallees4saisons.com/,,,0
1384,Chalet Arnica,46.178159999999998,7.386020000000000,chalet,,,,,www.alpenchalets.com,https://www.alpenchalets.net/?option=com_fewo&view=object&id=1832:chalet-arnica&Itemid=281,,,0
781,Chalet Aster,47.109016,6.802670000000000,alpine_hut,,,,,,,,,0
1381,Chalet Bergruh,47.087730999999998,9.302111000000000,chalet,,,,,,,,,0
479,Chalet Bergsicht,46.9875090,9.1544000,chalet,,,,,,https://www.molkenbad.ch,,,0
93,Chalet Bertha,46.7333810,7.9558350,chalet,,,,,,,,,0
435,Chalet Bethel,46.4859470,7.5399100,chalet,,,,,Heilsarmee,,,,0
514,Chalet Big Bear,46.1377760,7.2405150,chalet,,,,,,chaletbigbear.com,,,0
1260,Chalet Bonbon,46.1436840,7.243466000000000,chalet,,,,,4vallees4saisons.com,https://www.4vallees4saisons.com/,,,0
1678,Chalet Brisi,47.20134200,9.344422000000000,chalet,,,,,Berg & Bett Betriebs AG,https://booking.bergundbett.ch/vermietung/ferienhaus-wildhaus-chalet-brisi-437837.html,,,0
1450,Chalet Butticaz,46.49509500,6.822733000000000,chalet,,,,,,,,,0
488,Chalet Canadian Corner,46.6060560,7.917704,chalet,,,,,,,,,0
1244,Chalet Celeste,46.13910300,7.239403000000000,chalet,,,,,4vallees4saisons.com,https://www.4vallees4saisons.com/,,,0
1372,Chalet Charmille,46.140413,7.238294,chalet,,,,,alpenchalets.net,https://www.alpenchalets.net/en/?option=com_fewo&view=object&id=1177:chalet-charmille&Itemid=281,,,0
195,Chalet Chaud,46.1421620,7.2361800,chalet,,,,,https://www.alpenchalets.com/,https://en.alpenchaletsbookings.com/ski-area-4-vallees/la-tzoumaz/chalet-chaud/?sr=1,,,0
1242,Chalet Chocolat,46.1385100,7.240298000000000,chalet,,,,,4vallees4saisons.com,https://www.4vallees4saisons.com/,,,0
277,Chalet Chouquis,46.1030620,7.2233240,chalet,,,,,ski Verbier exclusive,,,,0
1681,Chalet Chäserrugg,47.201506999999999,9.344360000000000,chalet,,,,,Berg & bett Betriebs AG,https://booking.bergundbett.ch/vermietung/ferienhaus-wildhaus-chalet-chaserrugg-437838.html,,,0
1239,Chalet Coeur,46.1375900,7.24446400000000,chalet,,,,,4vallees4saisons.com,https://www.4vallees4saisons.com/,,,0
1383,Chalet Collons 1850,46.18514900,7.3845929999999997,chalet,,,,,www.alpenchalets.com,https://www.alpenchalets.net/?option=com_fewo&view=object&id=1193:chalet-collons-1850&Itemid=272,,,0
1555,Chalet Confort,47.334122000000001,7.141000000000000,chalet,,,,,,,,,0
1556,Chalet Confort,47.33400700,7.141020000000000,chalet,,,,,,,,,0
1616,Chalet Confort,47.334038999999997,7.141157000000000,chalet,,,,,,,,,0
1617,Chalet Confort,47.3340800,7.141077000000000,chalet,,,,,,,,,0
1251,Chalet Cornalin,46.151752000000002,7.232295000000000,chalet,,,,,4vallees4saisons.com,https://www.4vallees4saisons.com/,,,0
1158,Chalet Daheim 1,46.399954999999999,8.133231000000000,chalet,,,,,,,,,0
1436,Chalet Daniel,46.192225000000001,7.825702000000000,chalet,,,,,Franz Mack,,required,,0
269,Chalet Daray,46.1017430,7.2292000,chalet,,,,,,,,,0
751,Chalet Dauphinelle,46.4780240,7.1289540000000,chalet,,,,,,,,,0
35,Chalet Donadea,46.1346410,7.6259340,chalet,,,,,,,,,0
253,Chalet Du Bonheur,46.10649,7.2368880,chalet,,,,,,,,,0
832,Chalet Du Soldat,46.57647100,7.2634980,alpine_hut,,,,,Nicolas Gavillet & Sylviane Marendaz,https://www.chaletdusoldat.ch/,,,1
456,Chalet Edelweiss,46.1563110,7.6198470,chalet,,,,,,https://www.skizinal.com/ski-zinal-edelweiss.html,,,0
1509,Chalet Edelweiß,46.13875800,7.2380360,chalet,,8,,,,,,,0
722,Chalet Elvira,47.3587200,8.60191100,chalet,,,,,,,,,0
984,Chalet Fenchern,47.0432400,9.046407000000000,chalet,,,,,Rolf Beglinger,https://fenchern.ch/,,,0
1250,Chalet Froidmont,46.14707100,7.230713000000000,chalet,,,,,4vallees4saisons.com,https://www.4vallees4saisons.com/,,,0
1677,Chalet Frümsel,47.20134000,9.344310000000000,chalet,,,,,Berg & Bett Betriebs AG,https://booking.bergundbett.ch/vermietung/ferienhaus-wildhaus-chalet-frumsel-437839.html,,,0
828,Chalet Furmia,46.628024000000003,10.445681000000000,chalet,,,,,,,,,0
436,Chalet Füchsli,46.4309640,8.1691110,chalet,,7,,,,https://www.ferien-bellwald.ch/,,,0
1680,Chalet Gamserrugg,47.201506000000002,9.344248000000000,chalet,,,,,Berg & Bett Betriebs AG,https://booking.bergundbett.ch/vermietung/ferienhaus-wildhaus-chalet-gamserrugg-437873.html,,,0
1257,Chalet Gilbert,46.148349000000003,7.234878000000000,chalet,,,,,4vallees4saisons.com,https://www.4vallees4saisons.com/,,,0
1711,Chalet Grande Ourse,46.17717500,7.398456000000000,chalet,,,,,Alpenchalets.net,https://www.alpenchalets.net/de/?option=com_fewo&view=object&id=1804:chalet-grande-ourse&Itemid=272,,,0
680,Chalet Grat,46.59213300,7.296225000000000,alpine_hut,,,,,,https://chaletgrat.ch/,,,1
982,Chalet Halten,46.4560530,7.4457800,chalet,,6,,,,,,,0
1377,Chalet Harmonie,46.14297800,7.236906000000000,chalet,,,,,www.alpenchalets.com,https://www.alpenchalets.net/?option=com_fewo&view=object&id=1375:chalet-harmonie&Itemid=281,,,0
1380,Chalet Haute-Vue,46.139401999999997,7.239131000000000,chalet,,,,,,,,,0
272,Chalet Hickory,46.0975800,7.2283490,chalet,,,,,,,,,0
1682,Chalet Hinterrugg,47.20151200,9.34447500000000,chalet,,,,,Berg& Bett Betriebs AG,https://booking.bergundbett.ch/vermietung/ferienhaus-wildhaus-chalet-hinterrugg-438277.html,,,0
1366,Chalet Holland,46.6328380,8.020650000000000,chalet,,,,,,,,,0
1220,Chalet Hüehnerhüsli,47.0248230,7.482163000000000,chalet,,,,,,,,,0
443,Chalet IDA,46.1400650,7.2428300,chalet,,,,,GuP Simmendinger,http://www.verbier-wallis.de,,24.0/7,0
688,Chalet Ideal,46.3811510,7.627061000000000,chalet,,,,,,,,,0
1245,Chalet Ipsos,46.1400940,7.239077000000000,chalet,,,,,4vallees4saisons.com,https://www.4vallees4saisons.com/,,,0
1255,Chalet Juin,46.147793999999998,7.237964000000000,chalet,,,,,4vallees4saisons.com,https://www.4vallees4saisons.com/,,,0
1374,Chalet Julia,46.14262300,7.237396000000000,chalet,,,,,,https://www.alpenchalets.net/?option=com_fewo&view=object&id=1083:chalet-julia&Itemid=281,,,0
266,Chalet La Corniche,46.1032180,7.2251230,chalet,,,,,,,,,0
1507,Chalet La Luge,46.139342999999997,7.242754000000000,chalet,,,,,,https://chaletlaluge.com/,,,0
1041,Chalet La Planiaz,46.4637510,6.957393000000000,alpine_hut,,30,,,CAS,,required,,1
1512,Chalet La Poya,46.14339800,7.2309039999999998,chalet,,,,,,,,,0
516,Chalet La Tzoumaz Pearl,46.1421990,7.2453110,chalet,,,,,https://www.alpenchalets.com/,https://de.alpenchaletsbookings.com/skigebiet-4-vallees/la-tzoumaz/chalet-la-tzoumaz-pearl/,,,0
1506,Chalet Le Cerf,46.1397300,7.24270400,chalet,,,,,4vallees4saisons.com,https://4vallees4saisons.com/,,,0
1258,Chalet Le Fauconnier,46.1483920,7.235233000000000,chalet,,,,,4vallees4saisons.com,https://www.4vallees4saisons.com/,,,0
1350,Chalet Le Patyalè,46.625791000000000,7.160443000000000,chalet,,,,,,https://www.perona.ch/index.php?lg=fr&sn=01&c=02&sc=01&ssc=01,,,0
136,Chalet Le Pigeonnier,46.2904250,7.0957940,chalet,,,,,,,,,0
1371,Chalet Le Pliano,46.59089,7.035775000000000,chalet,,,,,,https://www.skiclub-latour.ch/presentation-du-chalet.html,,,0
1249,Chalet Le Refuge,46.1432590,7.235014000000000,chalet,,,,,4vallees4saisons.com,https://www.4vallees4saisons.com/,,,0
1243,Chalet Les Bubus,46.13743200,7.242653000000000,chalet,,,,,4vallees4saisons.com,https://www.4vallees4saisons.com/,,,0
1375,Chalet Les Etoiles,46.142716000000000,7.237118000000000,chalet,,,,,https://www.alpenchalets.com/,https://www.alpenchalets.com/,,,0
1123,Chalet Les Mouflons,46.1905260,6.842526000000000,chalet,,,,,,https://www.alpenchalets.net/?option=com_fewo&view=object&id=1938:chalet-les-mouflons&Itemid=281,,,0
980,Chalet Les Troncs,46.52079500,6.948290000000000,chalet,,,,,,,,,0
255,Chalet Lussy,46.0950610,7.2272080,chalet,,,,,,,,,0
1261,Chalet Lustycru,46.14361300,7.243724000000000,chalet,,,,,4vallees4saisons.com,https://www.4vallees4saisons.com/,,,0
1240,Chalet Mandalay,46.1386630,7.24281000000000,chalet,,,,,4vallees4saisons.com,https://www.4vallees4saisons.com/,,,0
520,Chalet Marguerite,46.1899390,7.388883,chalet,,,,,Alpenchalets.com,https://www.alpenchalets.net/de/?option=com_fewo&view=object&id=1178:chalet-marguerite&Itemid=272,,,0
1378,Chalet Maria,46.1429000,7.237275000000000,chalet,,,,,https://www.alpenchalets.com/,https://en.alpenchaletsbookings.com/ski-area-4-vallees/la-tzoumaz/chalet-maria/,,,0
1455,Chalet Martina,46.36104100,7.9734350,chalet,,,,,Martina Hofstetter-Mirlieb,,,,0
515,Chalet Michelle,46.1427550,7.2367920,chalet,,,,,alpenchalets.com,https://nl.alpenchaletsbookings.com/skigebied-4-vallees/la-tzoumaz/chalet-michelle/?sr=1,,,0
1376,Chalet Michelle,46.1427820,7.236820000000000,chalet,,,,,,,,,0
433,Chalet Moay,46.055518,7.2001150,chalet,,,,,,,,,0
1256,Chalet Mont-Gele,46.1477430,7.2356759999999998,chalet,,,,,4vallees4saisons.com,https://www.4vallees4saisons.com/,,,0
1241,Chalet Mont-Rose,46.13877100,7.2393460000000003,chalet,,,,,4vallees4saisons.com,https://www.4vallees4saisons.com/,,,0
1394,Chalet Müsli,46.2695090,7.8296359999999998,chalet,,,,,Familie Frühauf,https://www.chaletmuesli.ch/,,,0
1553,Chalet Nesoya,46.13745000,7.244135000000000,chalet,,,,,4vallees4saisons.com,https://www.4vallees4saisons.com/,,,0
1513,Chalet No 58,46.14356800,7.230792000000000,chalet,,,,,4vallees4saisons.com,https://www.4vallees4saisons.com/,,,0
268,Chalet Nyumba,46.1089520,7.2255180,chalet,,,,,,,,,0
847,Chalet Oase,46.29759000,7.6371120,chalet,,,,,,https://www.chalet-oase.ch/,,,0
1246,Chalet OnThePiste,46.1412780,7.233380000000000,chalet,,,,,4vallees4saisons.com,https://www.4vallees4saisons.com/,,,0
1254,Chalet Orchidee,46.14721800,7.23844900,chalet,,,,,4vallees4saisons.com,https://www.4vallees4saisons.com/,,,0
1516,Chalet Ourson blanc,46.17732900,7.397356000000000,chalet,,,,,alpenchalet.net,https://www.alpenchalets.net/en/?option=com_fewo&view=object&id=286:chalet-oursons&Itemid=281,,,0
445,Chalet Papillon,46.1800270,7.3155170,chalet,,,,,,,,,0
1262,Chalet Par Le Travers,46.139316000000001,7.2470920000000003,chalet,,,,,4vallees4saisons.com,https://www.4vallees4saisons.com/,,,0
1373,Chalet Petit Grande,46.140284999999999,7.238484000000000,chalet,,,,,,,,,0
1247,Chalet Petit-Sapin,46.14224500,7.235079000000000,chalet,,,,,4vallees4saisons.com,https://www.4vallees4saisons.com/,,,0
1252,Chalet Petite Arvine,46.15191900,7.232465000000000,chalet,,,,,4vallees4saisons.com,https://www.4vallees4saisons.com/,,,0
1020,Chalet Pfiff,47.201135000000001,9.34550300000000,chalet,,,,,Berg & Bett Betriebs AG,https://booking.bergundbett.ch/vermietung/ferienhaus-wildhaus-chalet-pfiff-438280.html,,,0
1510,Chalet Pierina,46.1423870,7.245175000000000,chalet,,,,,alpenchalets.com,https://alpenchalets.com/,,,0
279,Chalet Pierre Avoi,46.1019150,7.2199660,chalet,,,,,Ski Verbier Exclusive,,,,0
1358,Chalet Puntgada,46.444729000000002,9.579124999999999,chalet,,,,,,http://www.ferienhaus-juf.ch,,,0
1514,Chalet Quatre Vallees,46.1415570,7.233416000000000,chalet,,,,,www.alpenchalets.com,https://en.alpenchaletsbookings.com/ski-area-4-vallees/la-tzoumaz/chalet-quatre-Vallees/,,,0
551,Chalet Riedji,46.9414310,9.6780730,chalet,,,,,Dominik und Franziska Weibel,https://www.furnaferien.ch,required,,0
1046,Chalet Ruth,46.01149000,7.768490000000000,chalet,,,,,,,,,0
966,Chalet Rösi,46.4992820,7.568754000000000,chalet,,,,,Mathias Büschlen,https://www.chalet-roesi.ch/,,,0
1248,Chalet Sapin Argente,46.14234500,7.234746000000000,chalet,,,,,4vallees4saisons.com,https://www.4vallees4saisons.com/,,,0
1676,Chalet Schafberg,47.20116000,9.344581000000000,chalet,,,,,Berg & Bett Betriebs AG,https://booking.bergundbett.ch/vermietung/ferienhaus-wildhaus-chalet-schafberg-438291.html,,,0
1674,Chalet Schibenstoll,47.2011750,9.344350000000000,chalet,,,,,Berg & Bett Betriebs AG,https://booking.bergundbett.ch/vermietung/ferienhaus-wildhaus-chalet-schibenstoll-439571.html,,,0
1475,Chalet Scout,46.57547300,6.644999000000000,alpine_hut,,,,,La Croisée,http://filac.croisee.ch/,,,1
367,Chalet Scouts Perceval,47.2818470,7.3703890,chalet,,,,,,,,,0
1675,Chalet Selun,47.20117600,9.344462000000000,chalet,,,,,Berg & Bett Betriebs AG,https://booking.bergundbett.ch/vermietung/ferienhaus-wildhaus-chalet-selun-439572.html,,,0
275,Chalet Sherwood,46.0996430,7.2272920,chalet,,,,,Ski Verbier Exclusive,,,,0
967,Chalet Specht,46.4940510,7.564370000000000,chalet,,,,,private,https://chaletspecht.ch/,,,0
229,Chalet Spitzacker,46.4566140,7.440328,chalet,,,,,,https://www.ferienlizenz.ch/,,,0
829,Chalet Splerin,46.627853,10.44571200000000,chalet,,,,,,,,,0
827,Chalet Squirlat,46.6279580,10.445932000000001,chalet,,,,,,,,,0
643,Chalet St-Paul,46.6962740,7.1338400,chalet,,,,,Annemarie Reichenbach Schwaller,https://chaletsaintpaul.ch/,,,0
1109,Chalet St. George,46.19234200,7.34455100000000,chalet,,,,,,http://chaletstgeorge.com/,,,0
1508,Chalet Teremok,46.13951700,7.24294000000000,chalet,,,,,,https://chaletteremok.com/,,,0
1625,Chalet Teychenne Mungo,46.1829100,7.388405000000000,chalet,,,,,www.alpenchalets.com,https://www.alpenchalets.net/?option=com_fewo&view=object&id=1170:chalet-teychenne&Itemid=281,,,0
267,Chalet Tramontana,46.1088880,7.2279590,chalet,,,,,,,,,0
1045,Chalet Träumli,46.0116260,7.76809400,chalet,,,,,,,,,0
1303,Chalet Trübsee,46.7926050,8.398239999999999,chalet,,,,,,https://www.chalet-truebsee.ch/,,,0
1253,Chalet Tubber,46.1475600,7.237979000000000,chalet,,,,,4vallees4saisons.com,https://www.4vallees4saisons.com/,,,0
1511,Chalet Tzoumaz Pearl,46.14219500,7.245279000000000,chalet,,,,,,https://www.alpenchalets.net/?option=com_fewo&view=object&id=1844:chalet-la-tzoumaz-pearl&Itemid=272,,,0
624,Chalet Virginia,46.1914510,7.8394710,chalet,,,,,,http://www.chaletvirginia.nl,,,0
5,Chalet Wandelgrün,46.4612230,7.4449540,chalet,,,,,Ruth und Ernst Born,http://www.laenk.ch,,,0
1100,Chalet Weidhüttli Blaues Kreuz,46.515137000000003,7.593342000000000,chalet,,,,,,,,,0
1174,Chalet Yeti,46.43101600,8.169400000000000,chalet,,,,,,,,,0
1441,Chalet Zeno,46.290488000000003,7.094001000000000,chalet,,,,,,,,,0
1679,Chalet Zuestoll,47.20134600,9.34453600000000,chalet,,,,,Berg & Bett Betriebs AG,https://booking.bergundbett.ch/vermietung/ferienhaus-wildhaus-chalet-zuestoll-439739.html,,,0
261,Chalet d'Amont,46.0981970,7.232081,chalet,,,,,,,,,0
792,Chalet de La Berra,46.6777560,7.180887000000000,alpine_hut,,,,,Chalet de la Berra Sàrl,https://www.chaletdelaberra.ch/,,,1
910,Chalet de Mont-Soleil,47.1636970,6.993367000000000,alpine_hut,,,,,Amis de la Nature,http://www.laserment.com/montsoleil/,,,1
1218,Chalet de Sautodoz,46.42876400,6.971847000000000,alpine_hut,,5,,,,https://sautodoz.wordpress.com/,recommended,,1
246,Chalet de Savolayre C.A.S,46.2282520,6.8772690,wilderness_hut,31,,,,CAS Monté Rosa Monthey,,,,1
1567,Chalet de la Cergne,46.5046590,6.915462000000000,chalet,,,,,,http://www.st-legier.ch/index.php/location-de-salles/69-grande-salle,,,0
893,Chalet de la Combe Gelée,46.42932800,6.125688000000000,alpine_hut,,,,,,,,,0
1361,Chalet de la Croix,46.56011800,6.207301000000000,wilderness_hut,,,,yes,,,,,1
894,Chalet des Apprentis,46.43178500,6.1104789999999998,alpine_hut,,,,,ACASE,,,,1
1465,Chalet des Lattes,47.09326900,7.005139,chalet,,,,,Ski Club,,,,0
747,Chalet du Bois du Moulin,46.5429600,6.691580000000000,chalet,,,,,Pully Service forestier,https://forets.pully.ch/fr/activites-en-foret/location-de-refuges/chalet-du-bois-du-moulin/,,,0
849,Chalet du Chamois,46.5969880,7.156886000000000,chalet,,,,,,https://www.colonies.ch/fr/house/detail/24,,,0
714,Chalet du Club Jurassien section de Treymont,46.95957500,6.789558000000000,chalet,,,,,,,,,0
390,Chalet du Grütli,46.4733550,6.1167430,chalet,,,,,,,,,0
990,Chalet du Prabé,46.28149300,7.347058000000000,alpine_hut,,,,,,https://www.saviese.ch/fr/chalet-prabe-412.html,,,0
1707,Chalet du Pré du Creux,46.6982440,6.3784760000,wilderness_hut,,,,,,,,,0
619,Chalet du ski-club Petit-Val,47.2608890,7.2415060,chalet,,,,,,,,,0
673,Chalet du ski-club de Neuchâtel,47.060032,6.86029400000000,alpine_hut,,,,,,,,,0
1618,Chalet la Nouvelle Lune,46.511056000000004,6.253712000000000,chalet,,,,,,,,,0
1161,Chalet le Budokan,46.3484500,7.1703979999999996,chalet,,,,,,,,,0
105,Chalet le Muguet,46.5123870,6.2535840,chalet,,,,,,https://chaletlemuguet.org/,,,0
521,Chalet sur Piste,46.179018,7.3894040,chalet,,,,,www.alpenchalets.com,https://www.alpenchalets.net/en/?option=com_fewo&view=object&id=1339:chalet-sur-piste&Itemid=281,,,0
1517,Chalet sur Piste,46.17900800,7.3894229999999999,chalet,,,,,alpenchalets.net,https://www.alpenchalets.net/en/?option=com_fewo&view=object&id=1339:chalet-sur-piste&Itemid=281,,,0
399,Chalêt Nesthorn,46.3181670,7.9559860,chalet,8,6,,,,,,,0
1466,Chamana dal Bescher,46.7834870,10.128512000000001,wilderness_hut,,,,,,,,,0
91,Chamanna Cler,46.7997890,10.1842000,wilderness_hut,25,,,private,,https://www.ski-ardez.ch/chamonna,required,,0
1267,Chamanna Cluozza,46.662883,10.117629000000001,alpine_hut,61,,,,,https://nationalpark.ch/besuchen/unterkunft/cluozza/,,,1
1431,Chamanna Coaz CAS,46.383699,9.835433999999999,alpine_hut,55,,,,SAC - CAS,https://www.coaz.ch/,,,1
1696,Chamanna D'Uglix,46.6234650,9.72097900,alpine_hut,,,,,,,,,1
1382,Chamanna Georgy,46.4871500,9.955869000000000,alpine_hut,,,,,,https://www.chamanna-georgy.ch/,,,1
1402,Chamanna Jenatsch CAS,46.52936900,9.724462000000001,alpine_hut,73,,,,SAC Bernina,https://www.chamannajenatsch.ch/,,,1
1406,Chamanna Marangun,46.808250000000001,10.087940000000000,wilderness_hut,,,,,Gemeinde Lavin,,,,1
1714,Chamanna Pradatsch,46.585773000000003,9.952819999999999,wilderness_hut,,,,,Gemeinde Zuoz,https://www.zuoz.ch/de/dienstleistungen/translate-to-deutsch-objects-da-fit,,,1
1293,Chamanna d'Es-cha CAS,46.61146200,9.902834000000000,alpine_hut,50,,,,SAC Bernina,https://www.es-cha.ch/,,,1
1093,Chamanna da Boval CAS,46.4151730,9.925053999999999,alpine_hut,80,,,,SAC - CAS,https://www.boval.ch/,,,1
1367,Chamanna da Tschierva,46.40385000,9.880129000000000,alpine_hut,100,,,,SAC Bernina,https://tschierva.ch,required,,1
1407,Chamanna dal Linard,46.77939400,10.082934000000000,alpine_hut,38,,,,Club Alpin Svizzer - Secziun Engiadina Bassa,http://www.linardhuette.ch,,"Jul-Sep Su[2] Mo-Su; Sep-Oct Su[3] Fr-Su || ""Die genaue Oeffnung am besten auf der Website überprüfen""",1
1405,Chamanna digl Kesch,46.6451650,9.87519300,alpine_hut,92,,,,,https://www.kesch.ch/,,,1
1233,Chammern,47.2418640,9.176318000000000,chalet,,,,,Berg & Bett Betriebs AG,,,,0
1399,Chamonas d'Ela CAS,46.61875300,9.69191000,alpine_hut,26,,,,SAC-Sektion Davos,https://www.sac-davos.ch/,,,1
727,Chamonna Lischana,46.76557800,10.334580000000001,alpine_hut,42,,,,Club Alpin Svizzer Secziun Engiadina Bassa,https://www.lischanahuette.ch/,,"Jun Th[3] - Oct Su[2] ""Opening dates in start and end of season may differ, check for certainty the website.""",1
374,Chamonna Tuoi,46.8307350,10.1324880,alpine_hut,74,,,,Club Alpin Svizzer - Secziun Engiadina Bassa,https://www.tuoi.ch/,,"Jun Sa[2]-Oct Su[-2]; Dec 26-Jan Su[1];""Die genaue Oeffnung am besten auf der Website überprüfen""",1
1275,Chasa Ajüz,46.79521700,10.300235000000001,chalet,48,,,,,https://ajuez.ch/,,,1
541,Chasa Engadina,46.796489,10.2990680,chalet,,,,,,https://ferienimbaudenkmal.ch/chasa-engadina-oben/,,,0
169,Chasa Florinja,46.7984800,10.298934,chalet,,,,,,,,,0
223,Chasa Muntanella,46.6000180,10.4088680,chalet,,,,,,http://www.chasa-muntanella.ch/index.html,,,0
112,Chasa Vallaina,46.9613700,10.4060480,chalet,,,,,,https://www.vallaina.ch/,,,0
628,Chateau D’œx,46.4739220,7.1462120,chalet,,,,,,,,,0
483,Chateau d'Itravers,46.2489620,7.4904700,chalet,,,,,,,,,0
376,"Chatzerütihof, Ferien im Baudenkmal",47.5640220,9.3204700,chalet,,,,,,,,,0
763,Chelenalphütte,46.671709000000000,8.439914999999999,alpine_hut,42,56,,,SAC - CAS,https://www.chelenalp.ch/,,,1
439,Chesa Arnica,46.5780800,9.9200570,chalet,,,,,,http://www.etzlimo.ch/ChesaArnica.htm,,,0
1479,Chesa Caratsch,46.6118750,9.984073000000000,chalet,,,,,"Ferienkolonieverein Veltheim, 8400 Winterthur",www.fkvv.ch,,,0
1396,Chesa Flurina,46.8904510,9.847733000000000,chalet,,,,,,http://www.skiklosters.com/,,,0
109,Chesa Mezpra,46.9600980,10.4003720,chalet,,,,,,http://www.samnaun.net/mezpra/,,,0
540,Chesa Sulai,46.6118260,9.9853420,chalet,,,,,,https://ferienimbaudenkmal.ch/chesa-sulai/,,,1
361,Chevreuils,46.0938160,7.2308080,chalet,,,,,,,,,0
320,Chlushütte,46.8146360,7.9574580,wilderness_hut,18,,,,SAC Entlebuch,,,,1
1173,Chnöpfli,46.43091300,8.156938000000000,chalet,,,,,,,,,0
1630,Cholplatz,46.833948999999997,8.201992000000001,wilderness_hut,,,,,,,,,0
1051,Chrigelerhütte,46.74141000,7.389315000000000,chalet,,30,,,Ski-Club Christiania Bern,https://www.scchristiania.ch/html/clubhaus.html,,,1
1144,Chrüzhütte,46.87126000,8.436870000000001,alpine_hut,,,,,,,,,1
785,Chäserli,46.6992520,7.217185000000000,alpine_hut,,,,,,,,,0
259,Cimerose,46.09525,7.2281620,chalet,,,,,,,,,0
897,Citychalet,46.686754000000001,7.853037000000000,chalet,,,,,,https://citychalet.ch/,,,0
898,Citychalet,46.68676300,7.852760000000000,chalet,,,,,,https://citychalet.ch/,,,0
899,Citychalet Historic,46.6869230,7.852564000000000,chalet,,,,,,https://citychalet.ch/,,,0
1534,Cité Jeunesse,46.198819000000000,7.3429599999999997,chalet,,,,,,,,,0
1308,Claridenhütte,46.85953200,8.935764000000001,alpine_hut,74,,,,SAC Sektion Bachtel,https://www.claridenhuette.ch/,,24.0/7,1
961,Clubheim Fälensee,47.254334000000000,9.425541000000001,alpine_hut,34,,,private,SAC Sektion St.Gallen,https://sac-stgallen.ch/sac-clubheim-faelensee/,members_only,,0
47,Col de la Dent Blanche CAS Bivouac,46.041928,7.6070860,alpine_hut,15,,,,SAC - CAS,https://www.cas-jaman.ch/cabanes/bivouac-de-la-dent-blanche,,,1
1538,Colonia Pazzalino,46.4306250,8.660150000000000,chalet,,,60,,,,,,0
147,Comba Varde,45.9344800,7.1040350,chalet,,,,,,,,,0
856,Combi,46.6313180,7.25831500000000,alpine_hut,,,,,,,,,1
1576,Combioz,47.2646050,7.266325000000000,alpine_hut,,,,,,http://www.skiclubperrefitte.ch/situation.html,yes,,0
1060,Crap la Foppa,46.850646,9.267455999999999,chalet,,,,,Gemeinde Gams,https://www.gams.ch/schule/home/ferienheim-crap-la-foppa,,,0
902,Crau Rappo,46.711122,7.2086189999999997,alpine_hut,,,,,,https://www.lefromager.ch/en/crau-rappo,,Mo-Sa 09:00-22:00; Su 09:00-21:00,0
1037,Cresta,46.112951000000002,7.9407500000000004,chalet,,,,,,,,,0
1359,Cufercalhütte SAC,46.59335700,9.359022000000000,alpine_hut,22,,,,SAC - CAS,http://www.cufercal.ch,,,1
457,Cuicui,46.1566730,7.6201430,chalet,,,,,,https://www.cuicui.ch/,,,0
282,Cupidron,46.0923300,7.2349590,chalet,,,,,,,,,0
334,Curzútt,46.1943920,8.9930570,alpine_hut,,,,,,https://www.curzutt.ch/,,,0
1610,CÀ NOSTRA,46.2300920,8.752326999999999,chalet,,,,,Marc Müller,,,,0
480,Cäsa Picenoni Cief,46.3345810,9.5543320,chalet,,,,,,https://ferienimbaudenkmal.ch/caesa-picenoni-cief/,,,1
46,Dammahütte SAC,46.6448660,8.4577820,alpine_hut,20,,,,SAC - CAS,https://dammahuette.ch/,,,1
302,Delorme,46.1022510,7.2342640,chalet,,,,,,,,,0
1169,Desmin,46.41171400,8.102822000000000,chalet,,,,,,https://chalet.myswitzerland.com/ferienwohnung/fieschertal/desmin-studer-283511/,,,0
1646,Diana,46.389939,8.061152999999999,chalet,,,,,,,,,0
1128,Dieli-Hütte,46.920867999999999,9.154413999999999,chalet,,,,,,https://www.dieli-huette.ch/,,,1
726,Diepoldsauer Schwamm,47.3096560,9.49845900000000,alpine_hut,,,,,,,,,0
1209,Dixi,46.389031000000003,8.06490600000000,chalet,,,,,,,,,0
248,Djabo,46.0953930,7.235084,chalet,,,,,,,,,0
1004,Doldenhornhütte SAC,46.4869120,7.697417000000000,alpine_hut,36,,,,SAC Sektion Emmental,http://www.doldenhornhuette.ch,,,1
1299,Domhütte SAC,46.10279300,7.817635000000000,alpine_hut,75,,,,SAC - CAS,https://domhuette.ch,,,1
1548,Dossenhütte SAC,46.65510300,8.169468000000000,alpine_hut,51,,,,SAC - CAS,https://www.dossenhuette.ch/,,,1
482,Driesthütte,46.4071250,8.0193840,wilderness_hut,,,,,Burgerschaft Naters,http://www.burgerschaft-naters.ch/?id=49,recommended,,1
281,Eclat de Soleil,46.0918220,7.2320810,chalet,,,,,,,,,0
1168,Edelweiss Oehrli,46.4118320,8.1024170,chalet,,,,,,,,,0
219,Edelweissgarden Le Raccard,46.144598,7.2395090,chalet,,,,,Edelweissgarden,https://www.edelweissgarden.ch/,,,0
222,Edelweissgarden Les Deux Arolles,46.1442840,7.2410280,chalet,,,,,Edelweissgarden,https://www.edelweissgarden.ch/,,,0
221,Edelweissgarden Les Marmottes B,46.1440270,7.239928,chalet,,,,,,,,,0
220,Edelweissgarden Les Marmottes C,46.143942,7.239885,chalet,,,,,,,,,0
1184,Eden,46.3881030,8.060798000000000,chalet,,,,,,,,,0
534,Egg-Hüttli,46.9026370,8.1575300,wilderness_hut,,,,,,,,,1
95,Eichenwieser Schwamm,47.3117900,9.5022740,alpine_hut,,,,,,,,,0
64,Eiger-Ostegghütte,46.6003940,8.0411800,alpine_hut,12,,,,,http://www.mittellegi.ch,,,1
1210,Einhorn,46.3888430,8.064844000000001,chalet,,,,,,,,,0
1379,Emser Skihütte,46.7982890,9.480389000000001,alpine_hut,,,,,Ski- und Snowboardclub Domat - Ems,https://www.snowsport-ems.ch/,,,1
557,En Baye,46.4584290,6.9671350,chalet,,,,,,https://www.saleuscex.ch/chalet-en-baye/,,,1
851,Enderlinhütte SAC,47.038814000000002,9.551511000000000,alpine_hut,30,,,,SAC - CAS,https://www.sac-piz-sol.ch/html/a46b96ee-d135-11df-94da-deec044f7f8f/information_enderlinhuette,,,1
61,Engelhornhütte,46.6831780,8.1728260,alpine_hut,50,,,,AACB ( www.aacb.ch/engelhorn),https://www.aacb.ch/,,,1
911,Erika,47.3276530,9.3463240,chalet,,,,,,https://hauserika.ch/,,,0
89,Erlebacherhus,46.7495080,9.5468850,chalet,,,,,Gemeinde Erlenbach ZH,,,,0
385,Erlensand,46.4614490,8.2352350,chalet,,,,,,,,,0
358,Etrennes,46.1067390,7.2278040,chalet,,,,,,,,,0
336,Etzlihütte,46.7181820,8.720629,alpine_hut,75,,,,SAC Thurgau,https://etzlihuette.ch/,,,1
1281,Europahütte,46.10565500,7.805953000000000,alpine_hut,42,,,,,https://www.randa.ch/tourismus/berghuetten/europahuette/,,,1
1031,FMU,47.2019850,7.2069160000000,chalet,,,,,,,,,0
87,Federihütte,47.1690130,9.0811970,alpine_hut,,,,,,http://federihuette.ch/,,,1
1391,Fergenhütte,46.86896100,9.964774000000000,alpine_hut,21,,,,Schweizer Alpen-Club Sektion Prättigau,https://www.sac-praettigau.ch/,,24.0/7,1
1132,Ferienhaus Alpina,46.92102000,9.154462000000001,chalet,,,,,,https://www.ferienhaus-alpina.ch/,,,0
837,Ferienhaus Amman&Co.,47.67263600,9.086093000000000,chalet,,,,,,http://ammann-immo.ch/,,,0
452,Ferienhaus Bütenhüsli,47.6054030,9.2647450,chalet,,,,,Peter und Daniela Ebinger,https://www.buetenhuesli.ch/,,,0
372,Ferienhaus Cresta,46.9079520,9.7890170,chalet,,,,,,https://www.ferienhaus-cresta.ch/,,,0
386,Ferienhaus Fäsch,47.1030920,9.2969280,chalet,,,,,Fam. Wildhaber,,,,0
994,Ferienhaus Gamsli,47.18912700,9.338288000000000,chalet,,,,,,,,,0
478,Ferienhaus Hämetli,47.4631970,9.5522880,chalet,,,,,,,,,0
588,Ferienhaus Hörli,47.3088700,9.2109730,chalet,,,,,Familie Signer,https://hoerli.ch,,,0
442,Ferienhaus Insel,46.0955500,7.9562400,chalet,,,,,Familie Andenmatten,https://www.ferienhaus-insel.ch/,,,0
1311,Ferienhaus Klingenzell,47.6365320,8.898066999999999,chalet,,,,,,https://www.ferienhaus-klingenzell.ch/,,,0
1317,Ferienhaus Kännelalp,47.079141999999997,9.094355999999999,chalet,,,,,,https://www.kaennelalp.ch,,,0
1130,Ferienhaus Kärpf,46.921253000000000,9.154654000000001,chalet,,,,,,http://www.skiclub-seon.ch/ferienhaus-kaerpf-2/home-fhk,,,0
526,Ferienhaus Lana,46.1972520,7.4427670,chalet,,,,,Angelika Mori,https://www.ferienhaus-schweiz.com/19/chalet.php?DOC_INST=1,,,0
528,Ferienhaus Les Pyramides,46.1975250,7.4423120,chalet,,,,,Angelika Mori,https://www.ferienhaus-schweiz.com/19/chalet.php?DOC_INST=1,,,0
529,Ferienhaus Mélèze,46.1976080,7.4419980,chalet,,,,,,https://www.ferienhaus-schweiz.com/19/chalet.php?DOC_INST=1,,,0
542,Ferienhaus Mönchsklause,47.5836180,8.8674970,chalet,,,,,Kartause Ittingen,https://www.kartause.ch/de/ferien-im-baudenkmal,,,0
527,Ferienhaus Papillon,46.1973870,7.4426000,chalet,,,,,Angelika Mori,https://www.ferienhaus-schweiz.com/19/chalet.php?DOC_INST=1,,,0
472,Ferienhaus Rhyweg 4,47.6527890,8.8666140,chalet,,,,,,,,,0
954,Ferienhaus Rudigier,46.5787320,9.92785800000000,chalet,,,,,,https://www.groups.ch/de/K-0362-0265/gruppenunterkuenfte_beschrieb.html,,,0
1437,Ferienhaus Schanz,46.709304000000003,8.594207000000001,chalet,,,,,,,,,0
179,Ferienhaus Schilana 80,46.8338210,10.379442,chalet,,,,,,,,,0
630,Ferienhaus Schlössli,46.3772030,7.6296910,chalet,,,,,,,,,0
618,Ferienhaus Schlössli Herrenhof,47.59655,9.2443200,chalet,,,,,,https://www.schloessli-herrenhof.com/,,,0
975,Ferienhaus Schwäbrig,47.37998000,9.486599999999999,chalet,,,,private,Stiftung Zürcher Schülerferien,https://ferienhaeuser.zsf.ch/ferienhaus-vorderer-schwaebrig/,,,0
633,Ferienhaus Schönau,47.2009830,9.3261530,chalet,,,,,Berg & Bett Betriebs AG,https://booking.bergundbett.ch/vermietung/ferienhaus-wildhaus-schonau-441306.html,,,0
444,Ferienhaus Seewil,47.0369700,7.1189150,chalet,,,,,CVJM/CVJF,https://seewil.ch,,,0
176,Ferienhaus Seiler,46.7969650,10.2541190,chalet,,,,,,,,,0
950,Ferienhaus Station Alvaneu,46.67105800,9.651341000000000,chalet,,,,,,https://ferienimbaudenkmal.ch/rhb-station-alvaneu/,,,0
543,Ferienhaus Under Putz,46.9256210,9.7409940,chalet,,,,,,https://ferienimbaudenkmal.ch/haus-under-putz/,,,0
1390,Ferienhaus Valbella,46.7983840,9.704212999999999,chalet,,,,,,,,,0
1585,Ferienhaus Vogelherd,47.452713000000003,9.54616200,chalet,,,,,,https://vogelherd.business.site/,,,0
715,Ferienhaus Vorberg,47.2691690,7.584847000000000,chalet,,,,,Familie Müller-Schürch,,,,0
925,Ferienhaus am Bach,47.66766500,9.08199700000000,chalet,,,,,,,,,0
1639,"Ferienheim ""Oberheimet""",47.116210000000002,9.130587999999999,chalet,,,,,Maria Gehrig,,,,0
1300,Ferienheim Gufelstock,46.993606000000000,9.153485000000000,chalet,,,,,,https://www.ferienheimgufelstock.ch/,,,0
1138,Ferienheim Lindenweidli,46.790216999999998,7.780349000000000,chalet,,,,,,https://www.lindenweidli.ch/,required,,0
917,Ferienheim Morgenholz,47.126547000000002,9.019451999999999,chalet,,,,,,https://www.morgenholz.ch/,,,0
1316,Ferienheim Mullern,47.08617500,9.097709999999999,chalet,,,,,,http://www.massenlager.com,,,0
769,Ferienheim Ob dem See,46.826675999999999,9.854654000000000,chalet,,,,,,https://ferienheim-davos.ch/,,,0
905,Ferienheim Plätz Klöntal,47.025258,8.940389000000000,chalet,,,,,Gemeinde Glarus Nord,https://glarus.swiss/map/detail/ferienheim-plaetz-f1bea2be-62b1-4a72-841e-3bd22cee5fd1.html#/,,,0
678,Ferienheim Saggberg,47.03463000,9.017590000000000,chalet,,,,,Gemeinde Glarus,,,,0
104,Ferienlager Heiti,46.3815240,7.2623390,chalet,,,,,,,,,0
1277,Ferienlager alte Sagi,46.744267999999998,9.23039700000000,chalet,,,,,,http://www.sagi-riein.ch,,,0
1099,Ferienlagerhaus Blaues Kreuz Marchgraben,46.515095000000002,7.592525000000000,chalet,,,,,,,,,0
1101,Ferienlagerhaus Blaues Kreuz Weid,46.515431000000000,7.593357000000000,chalet,,,,,,,,,0
111,Ferienresidenz Soliva,46.9594290,10.4003560,chalet,,,,,,https://www.soliva.ch/,,,0
538,Ferienstadel auf dem Walkerstein,46.2257630,7.8479130,chalet,5,,,,,https://walkerstein.ch/,,,0
493,Ferienwohnung,46.818575,10.3392890,chalet,,,,,,https://www.appa.ch/21422.htm,,,0
1055,Ferienwohnung (www.tennaferien.ch),46.7472280,9.33910000000000,chalet,,,,,Yvonne + Christian Joos-Sprecher,http://www.tennaferien.ch/,,,0
1017,Ferienwohnung Bella Vista,47.20178400,9.354257000000000,chalet,,,,,Berg & Bett Betriebs AG,https://booking.bergundbett.ch/vermietung/ferienwohnung-wildhaus-bella-vista-437834.html,,,0
487,Ferienwohnung Chalet Protea,46.6051740,7.9187170,chalet,,,,,,https://www.protea-wengen.ch/,,,0
476,Ferienwohnung Frostenegg,47.624876,8.8255530,chalet,,,,,Hedi Akeret,,,,0
1435,Ferienwohnung Sansandrisch 31,46.7584420,9.136488000000000,chalet,,,,,,,,,0
656,Ferienwohnung Wanni,46.5733040,7.623511,chalet,,,,,,https://www.e-domizil.ch/rental/2486df78e5cbf93099578b352a2a9507,required,,0
1015,Ferienwohnungen Alpstern & Alpstein,47.2017140,9.346193000000000,chalet,,,,,Berg & Bett Betriebs AG,https://booking.bergundbett.ch/vermietung/ferienwohnung-wildhaus-alpstern-516335.html,,,0
341,Ferme Sterchi,47.1008520,6.8478810,alpine_hut,,35,,,,https://fermesterchi.weebly.com/dormir-sur-la-paille.html,,,0
157,Feyersaga,46.7054220,7.2246240,alpine_hut,,,,,,,,,0
547,Finsteraarhornhütte,46.5219760,8.1144700,alpine_hut,116,,,,,http://www.finsteraarhornhuette.ch,,,1
698,Fiottet,47.01749700,6.816234000000000,chalet,,,,,Club Alpin Suisse - Section Sommartel,,,,0
333,Fischerhäuser,47.5645740,9.37854,chalet,,,,,,https://www.magnificasa.ch/,,,0
1297,Flamberghuis,46.978769000000000,8.679039000000000,chalet,,,,,,https://flamberghuis.ch/,,,1
942,Flueseehütte,46.41124000,7.4994840000000,wilderness_hut,14,,,,Fluhseeverein Lenk,https://www.fluhsee.ch/,,,1
1280,Fluhalp,46.01273200,7.810925000000000,alpine_hut,30,,,,,https://www.fluhalp.swiss/,,,1
1207,Foresta,46.38868,8.065296000000000,chalet,,,,,,,,,0
1651,Fornohütte - Capanna del Forno CAS,46.33186800,9.709384999999999,alpine_hut,63,,,,SAC - CAS,https://www.fornohuette.ch/,,,1
670,Forsthaus Sackholz,47.3834540,8.736732000000000,wilderness_hut,32,,,permit,,https://www.zueriwald.ch/wald-fuer-alle/waldhuetten/fehraltorf/,required,,0
996,Frauenfelderhaus,47.19243300,9.330575000000000,chalet,,,,,,,,,0
1492,Freizeithaus Walten,47.3921780,7.846286000000000,chalet,,,,,,https://www.myswitzerland.com/de-ch/unterkuenfte/walten-laeufelfingen/,,,0
765,Freiämter Ferienhaus,47.0431030,8.486476000000000,chalet,,,,,,,,,0
659,Fresh Cube LivngStation,46.2976240,7.905164,chalet,,,,,,https://www.fresh-cube.ch/livingstation,,24.0/7,0
489,Fribauhaus,46.8088720,7.147443,chalet,,,,,,,,,0
1231,Fridolinshütte,46.82131900,8.950030999999999,alpine_hut,50,,,,SAC Sektion Tödi,http://www.fridolinshuette.ch,,24.0/7,1
373,Fromatthütte,46.5457260,7.432787,alpine_hut,20,,,,SAC,https://www.sac-wildhorn.ch/huetten/fromatthuette,,,1
379,Frutt,46.961403,8.7477760,chalet,,,,,,,,,0
1005,Fründenhütte SAC,46.483637999999999,7.741870000000000,alpine_hut,58,,,,,https://www.fruendenhuette.ch/,,,1
843,Fuchses Schwyberg,46.67599500,7.2558009999999999,alpine_hut,,,,,,,,,0
412,Furggeli-Hütte,46.9629630,8.6433200,alpine_hut,,,,,,,,,1
1264,Furgglenalp,47.2553720,9.43325000,alpine_hut,,,,,,https://furgglenalp.ch/,,,1
957,Fählenalp,47.2495910,9.40852300,alpine_hut,35,,,,,https://www.appenzell.ch/de/unterkunft/uebernachten-auf-der-alp/faehlenalp.html,,Jun-Sep,1
1115,Fällander Waldhuus,47.3787570,8.62077000,wilderness_hut,100,,,permit,,,required,,0
1448,Gai Soleil,46.28200000,7.080992000000000,chalet,,,,,,,,,0
359,Gai Torrent,46.0973170,7.2239170,chalet,,,,,,,,,0
1525,Galmhütte,46.91677200,7.175011000000000,wilderness_hut,,,,,,,,,1
343,Galmihornhütte,46.4892740,8.2428860,alpine_hut,35,,,,,https://galmihornhuette.ch/,,,1
1182,Gamma,46.38843500,8.061120000000001,chalet,,,,,,,,,0
1412,Gandegghütte,45.9641380,7.725649000000000,alpine_hut,48,,,,,https://www.gandegg.ch/,,,1
1104,Gartenhüsli,47.2839540,9.403423000000000,chalet,,,,,,https://www.scappenzell.ch/content/gartenhuesli/,,,0
1468,Gaulihütte SAC,46.62381000,8.216647000000000,alpine_hut,65,,,,SAC - CAS,https://www.gaulihuette.ch/,,,1
415,Geisshittae,46.8900280,8.5667440,alpine_hut,,,,,,,,,0
1549,Gelmerhütte,46.6312580,8.34278200000000,alpine_hut,55,,,,,https://www.gelmerhuette.ch/,,,1
721,General-Wille-Haus SAC,47.3664490,7.835009000000000,alpine_hut,,,,,SAC - CAS,,,,1
495,Genossenschaft Obergass59,46.7079990,9.716974,chalet,,,,,,,,,0
461,Gerbe-Hüsli,47.6100920,9.2657730,chalet,,,,,,https://gerbe-huesli.business.site/,,,0
339,Gfellalphütte,46.4399170,7.7193270,alpine_hut,,,,private,Kandersteg International Scout Centre,,required,,0
348,Giesseblick,46.3691780,8.1992010,chalet,4,,,,,,,,0
924,Gipfelhütte Alvier,47.10955000,9.414275000000000,alpine_hut,24,,,,,https://www.alvierhuette.ch/,,,1
774,Gitschenhörelihütte,46.8577290,8.525031000000000,alpine_hut,15,,,private,,https://www.urnerwanderplaner.ch/de/huette/gitschenhoerelihuette/16315164/,,,1
50,Glattalphütte,46.9168400,8.8750060,alpine_hut,51,,,,SAC Sektion Mythen,https://www.glattalphuette.ch/,,,1
1386,Glecksteinhütte SAC,46.62510800,8.096515999999999,alpine_hut,88,,,,SAC - CAS,https://www.gleckstein.ch/,,,1
1175,Gletscherstube Märjelen,46.44041600,8.1020430,alpine_hut,34,,,customers,,http://www.gletscherstube.ch,,,1
921,Glärnischhütte,47.001625,8.963550000000000,alpine_hut,90,,,,SAC Sektion Tödi,https://www.glhuette.ch/,,Jun Sa-Su; Jul 1-Sep 15 Mo-Su; Sep 16-Oct 15 Sa-Su,1
311,Graheme,46.0975290,7.2263910,chalet,,,,,,,,,0
854,Grand Chalet,46.63566800,7.251770000000000,alpine_hut,,,,,,,,,0
256,Grand Soleil,46.0916700,7.2313580,chalet,,,,,,,,,0
580,Grand Tavé,46.0993920,7.2100340,chalet,,,,,,,,,0
723,Grand Vy,46.93438000,6.741677000000000,alpine_hut,,,,,,,,,0
940,Grande Ourse,46.1080590,7.512968000000000,chalet,,,,,,https://www.chaletherens.ch/,,,0
506,Grathütte,46.5648010,7.6935540,alpine_hut,10,,,,,https://www.grathuette.ch/,,,1
1165,Grialetschhütte,46.710124999999998,9.960587000000000,alpine_hut,58,,,,,https://www.grialetsch.ch/,,,1
786,Gross Kapberg,46.6850890,7.230540000000000,alpine_hut,,,,,,,,,0
787,Gross Kapberg,46.6850890,7.230540000000000,alpine_hut,,,,,,,,,0
1452,Grotzli,46.98329400,8.208805999999999,alpine_hut,,,,,,,,,0
1335,Groven,46.326143000000002,9.17201900000000,alpine_hut,,,,,,,,,0
672,Grubenberghütte,46.54931700,7.2520610000000003,alpine_hut,23,,,,SAC,http://www.grubenberghuette.ch,,,1
194,Gruebenhütte,46.6058830,8.2593060,alpine_hut,16,,,,AAC Basel,https://www.gruebenhuette.ch/,,,1
1487,Gruoberhus,46.886139000000000,9.866820000000001,chalet,,,,,Schulverwaltung Dietikon,https://www.dietikon.ch/de/tourismus/sehenswuerdigkeiten/welcome.php?action=showobject&object_id=7005,,,0
548,Gruppenchalets,47.3569760,9.453482,chalet,,,,,NOVATAL GMBH,https://www.gruppenchalets.com/,,,0
380,Gruppenferienhaus Bruder Klaus / Bruder-Chlausen-Heim,46.7816140,8.1610310,chalet,,,,,Genossenschaft Gruppenferienhaus Bruder Klaus,,,,0
1454,Gruppenferienhaus alts Schüelhüs,46.35796900,7.983515000000000,chalet,,,,,,https://www.burgerschaft-naters.ch/liegenschaften/gruppenferienhaus-alts-schueelhues-38,,,0
1722,Gruppenhaus AbenteuerNatur,47.14229600,7.20627300000000,chalet,,,,,,https://www.abenteuernatur.ch/gruppenhaus.html,,,0
1577,Gruppenhaus Müllersberg,47.4346320,9.536493999999999,chalet,,,,,,,,,0
1270,Gruppenunterkunft Maria in der Au,46.856763000000001,8.771368000000001,chalet,,,,,,https://www.gruppenhaus.ch/de/haus/gruppenunterkunft/maria_in_der_au/1119,,,0
120,Gruppenunterkunft Mettlenalp,46.9938610,7.9416880,alpine_hut,,,,,,,,,0
983,Grünsee Mountain Lodge,46.006003999999997,7.779724000000000,alpine_hut,,,,,,https://gruenseemountainlodge.ch/,,,1
52,Gspaltenhornhütte SAC,46.5126920,7.8102630,alpine_hut,60,,,,SAC - CAS,https://www.gspaltenhornhuette.ch/,,,1
1547,Guesthouse,46.11502400,8.921082999999999,chalet,,,,,Cantine Stucky-Hügin,,,,0
49,Guggihütte,46.5627470,7.9743990,alpine_hut,24,,,,SAC - CAS,https://www.sac-interlaken.ch/,,,1
623,Gästehaus Benefeci,46.7101940,9.165231,chalet,,,,,,https://benefeci.ch/,,,0
920,Gästehaus am Sonnenfeld,47.571942999999997,9.282572000000000,chalet,,,,,,https://www.am-sonnenfeld.ch/,,,0
1429,Gîte Dynamo,47.350861999999999,7.148404000000000,chalet,,,,,,,,,0
432,Gîte d'alpage de Dorbon,46.2591730,7.1904660,alpine_hut,20,,,yes,,https://www.dorbon.ch/,,Jun 08 - Sep 29,1
398,Gîte de Lodze,46.2596140,7.2595870,chalet,,,,,,,,,0
1077,Gîte de Lourantze,46.3552040,7.420562000000000,alpine_hut,,,,,,https://www.gitedelourantze.ch/,,,0
1162,Gîte de la Léchère,45.92018000,7.09870400,alpine_hut,,,,,,https://www.gitedelalechere.ch/,,,0
503,Gîte des Vergers,46.2171660,7.2876600,chalet,,,,,Olivier Cordey,http://www.gitedesvergers.ch/,,,0
629,Gîte du Vélie,47.3705640,7.2335020,chalet,,,,,,https://www.montavon-societevillageoise.com/,,,0
1464,Hagen,47.774143,8.56739400000000,wilderness_hut,15,,,yes,,,no,,0
926,Hagenhütte,47.77622500,8.567876999999999,wilderness_hut,40,25,,permit,Pfadicorps Schaffhausen,http://www.hagenhuette.ch,required,,1
1397,Haghütte,46.8847120,8.449292,alpine_hut,,,,,,,,,0
885,Hans im Glück,47.30077100,9.176380000000000,chalet,,,,,Madlaina Feuerstein,https://www.haus-im-glueck.ch/,,,0
1347,Hari's Chalets 5+6,46.48237300,7.562430000000000,chalet,,,,,,,,,0
1111,Hasenbuckhütte SAC,47.761676000000001,8.574128999999999,alpine_hut,,22,,,SAC - CAS,https://www.sac-randen.ch/H%C3%BCtten/Hasenbuck/tabid/1409/Default.aspx,required,,1
717,Hasenrain,47.3748840,8.478316000000000,wilderness_hut,32,,,permit,Gewerbeverein Albisrieden,,required,,0
121,Hauderalp,46.7167150,9.7797190,alpine_hut,,,,,,,,,0
989,Haus 1,47.1079200,8.752366000000000,chalet,,,,,Genossame Dorf-Binzen,https://www.josefsdoerfli.ch,,,0
987,Haus 2,47.107962999999998,8.752560000000001,chalet,,,,,Genossame Dorf-Binzen,https://www.josefsdoerfli.ch,,,0
988,Haus 3,47.1080550,8.75245300000000,chalet,,,,,Genossame Dorf-Binzen,https://www.josefsdoerfli.ch,,,0
944,Haus Alpen,46.38332000,7.62519800000000,chalet,,,,,,http://www.ferienwohnung-alpen.ch/,,,0
689,Haus Antoinette,46.38085400,7.627758000000000,chalet,,,,,,,,,0
110,Haus Bergkristall,46.9600430,10.4053080,chalet,,,,,,http://www.homepage.bluewin.ch/haus-bergkristall/,,,0
686,Haus Gassustutz,46.382624000000000,7.6279120000000002,chalet,,,,,,,,,0
684,Haus Goliath,46.38325500,7.629358000000000,chalet,,,,,,https://www.leukerbad-goliath.ch/,,,0
108,Haus Helvetia,46.9602480,10.4053890,chalet,,,,,,https://www.haushelvetia.ch/,,,0
685,Haus Majesta,46.382898,7.628518000000000,chalet,,,,,,https://www.majesta.ch/,,,0
1524,Haus Montana,46.56102800,7.896510000000000,chalet,,,,,,https://haus-montana.ch,,,0
387,Haus Riviera,46.1582380,7.9259410,chalet,,,,,,,,,0
234,Haus Solvay,46.0165700,7.7480660,chalet,,,,,,,,,0
1050,Haus Storchenegg,47.368689000000003,8.951663000000000,chalet,,,,,,https://www.storchenegg.ch/,,,0
637,"Haus Vira, Matterhorn-Home Apartments",46.0111640,7.7462130,chalet,,,,,,https://www.matterhorn-home.ch,,,0
544,Haus am Platz,46.9285540,9.7139410,chalet,,,,,,https://ferienimbaudenkmal.ch/haus-am-platz/,,,0
1491,Haus an der Emme,46.95340600,8.015847000000001,chalet,,,,,,https://www.hausanderemme.ch/,,,0
927,Haus der Kinderfreunde,46.9068980,7.513452000000000,chalet,,,,,Verein Kinderfreunde Bern,https://www.kinderfreundebern.ch/das-huesi/,,,0
1369,Haus der Naturfreunde Gwatt,46.63906200,7.576629000000000,chalet,,,,,,https://www.nfgwatt.ch/haus/index.html,,,0
1535,Heftihütte,46.8509440,7.981516000000000,alpine_hut,12,,,,SAC Emmental,https://www.sac-emmental.ch/,,,1
862,Heidelberger Hütte,46.909734000000000,10.259612000000001,alpine_hut,156,,,,DAV,https://www.heidelbergerhuette.at/,,,1
25,Hinterbalmhütte,46.7795430,8.7984840,alpine_hut,34,40,,,,https://www.hinterbalm-huette.ch/,,,1
307,Hiver,46.0912340,7.232305,chalet,,,,,,,,,0
139,Hohberg,46.6757820,7.3357450,alpine_hut,,,,,,,,,0
150,Hohfläsch-Hütte,47.0818020,8.9397200,alpine_hut,,,,,,,,,1
569,Hohganthütte,46.7825910,7.9060930,wilderness_hut,,,,,SAC - CAS,https://www.sac-emmental.ch/huetten/hohganthuette.php,,,1
570,Hollandiahütte,46.4752670,7.9601700,alpine_hut,86,,,,SAC - CAS,https://www.hollandiahuette.ch/,,,1
1596,Holz-Iglu,46.8310540,10.367022000000000,chalet,,,,,,,,,0
1601,Holzer-Hütte,47.063132000000003,9.44302400,wilderness_hut,,,,,,,,,0
161,Holzerheim,46.8134340,9.316876,chalet,,,,,,,,,0
743,Hospice du Grand Saint-Bernard,45.868842000000001,7.170535000000000,alpine_hut,104,,,,,https://gsbernard.com/,,,1
855,Hubel Rippa,46.6580570,7.277356000000000,alpine_hut,,,,,,,,,0
316,Hubelhuus Beatenberg,46.7040850,7.8217330,alpine_hut,,,,,Drudel 11 - Erlebnispädagogik und Umweltbildung,https://www.hubelhuus.ch/,,,0
80,Hubelhütte,46.7473740,9.8144310,alpine_hut,,,,,,,,,0
1589,Hubenhütte,47.44394100,8.521338999999999,chalet,,,,,Huben Holzkorporation,,,,0
962,Hundsteinhütte SAC,47.2548210,9.422236000000000,alpine_hut,42,,,,SAC - CAS,https://www.hundstein.ch/,yes,"May-Oct ""Check Website""",1
395,Hut,46.7922390,7.4485690,wilderness_hut,,,,,,,,,0
1125,Huus Ricken,46.920878999999999,9.15499200000000,chalet,,,,,,https://huusricken.ch/,,,0
981,Hysope,46.1841160,7.5826270,chalet,,,,,,,,,0
1654,Häminghütte,47.6778960,8.54327300000000,wilderness_hut,,,,,Einwohnergemeinde Neunkirch,,,,0
1659,Häxenhüsli,47.545316,8.91186100000000,chalet,,,,,,,,,0
661,Hôtel Victoria,46.23831500,6.85101500000000,chalet,,,,,E&P Reisen & Events GmbH,https://www.ep-reisen.de/skireisen/reiseziele/schweiz/portes-du-soleil/sportclub-victoria-mit-programm/,,,0
1708,Hôtel du Bostriche,46.53311,7.045969000000000,alpine_hut,,,,,Commune de Haut-intyamon,,,,0
1048,Höngger Hütte,47.43488200,8.413824999999999,wilderness_hut,25,,,permit,Berg-Club Höngg,https://www.bergclub-hoengg.ch/,required,,0
1095,HörnliHaus,47.365763999999999,8.939771000000000,chalet,,,,,Verein HörnliHaus,https://www.hoernlihaus.ch,,,0
504,Hörnlihütte,45.9821970,7.6770110,alpine_hut,120,,,,SAC,https://hoernlihuette.ch/,,,1
669,Hörnlihütte,46.767861000000003,9.62003100000000,alpine_hut,,,,,,,,,0
51,Hüfihütte,46.8018250,8.8189950,alpine_hut,32,,,,SAC Sektion Pilatus,https://www.huefihuette.ch/,,,1
735,Hürlisboden,46.662236999999998,7.308869000000000,alpine_hut,,,,,,,,,0
1605,Hütte Hofholz,47.41917300,8.9742680000000,wilderness_hut,,,,,,,,,0
1457,Hütte Laschein,46.8458990,9.45152400000000,chalet,,,,,,,,,0
1693,Hütte Platzgerklub,46.90699600,7.208139000000000,wilderness_hut,,,,,Platzgerklub Kriechenwil,,,,0
459,Hüttenberg,46.9702540,9.0573080,chalet,,,,,,,,,0
594,Iffigenalp,46.3994550,7.441151,alpine_hut,,,,,,,,,0
1192,Iloim,46.38912100,8.065160000000001,chalet,,,,,,,,,0
321,Im Bergli,46.7640560,7.664163,chalet,,,,,,https://www.imbergli.ch/,,,0
1597,Im Fall,46.97505900,8.6332980,alpine_hut,,,,private,,,,,0
94,Inneralp,47.305714,9.5131920,alpine_hut,,,,,,,,,0
1117,Inseltraum,47.069201000000000,7.141459000000000,chalet,15,,,,"Christine, Markus & Jonas Schumacher",,,,0
1164,Isletenhütte,47.4808220,7.832007000000000,wilderness_hut,,,,,,,,,0
788,Italienera,46.681266000000001,7.224220000000000,alpine_hut,,,,,,,,,0
262,Ivouette,46.094429,7.2301830,chalet,,,,,,,,,0
692,JW - Heim,47.00412100,9.495139000000000,chalet,,,,,,,,,0
1583,"Jagdhaus ""Laubberg""",47.5649080,8.507142999999999,wilderness_hut,40,,,permit,"Jagdgesellschaft Glattfelden Nord ""Laubberg""",https://www.glattfelden.ch/verwaltung/dienstleistungen-a-z.html/462/service/502,required,,0
342,Jagdhütte Riederen,46.7052330,8.5781860,wilderness_hut,4,,,yes,,,,,0
298,Jasmine,46.0992170,7.2329760,chalet,,,,,,,,,0
995,Jennyhaus,47.1892870,9.334819000000000,chalet,,,,,,https://bergundbett.ch/gruppenhaeuser/jennyhaus/,,,0
283,Joli Soleil,46.0920110,7.2317420,chalet,,,,,,,,,0
1276,Jugend- und Erlebnishaus Eichberg,47.342472,9.51450600000000,chalet,,,,,Genossenschaft Jugend- und Erlebnishaus Eichberg,,,,0
32,Jungfraublick,46.6055900,7.9062810,chalet,,,,,,,,,0
1461,Jurahaus,47.1607110,7.157853000000000,alpine_hut,35,,,,SAC Biel/Bienne,https://www.jurahaus-sac.ch,,,1
72,Jägerverein Holderbank,47.4329220,8.1730580,chalet,,,,private,,,,,0
977,Jörihus,46.5484680,9.296811000000000,chalet,11,,,,,http://www.jörihus.ch,,,1
1110,Kadettenhütte,47.77088600,8.573880000000001,alpine_hut,,,,private,KOS Altkadetten Schaffhausen,http://kos-altkadetten.ch/,required,,0
1655,Kafe-Stübli,47.107049000000004,8.688651999999999,wilderness_hut,,,,,,,,,0
305,Katarina,46.1026070,7.2384640,chalet,,,,,,,,,0
287,Ker Praet,46.1001210,7.2285360,chalet,,,,,,,,,0
1152,Kessihütte,46.891202000000000,9.91278500000000,wilderness_hut,,,,,,,,,1
135,Kinhütte,46.0885270,7.8070920,alpine_hut,,,,,"Gebrüder Imboden, Täsch",,,,1
1566,Kistenpasshütte,46.8403660,9.029306999999999,alpine_hut,16,,,,SAC Sektion Winterthur,http://www.kistenpasshuette.ch,recommended,Jul 01-Oct 15 00:00-24:00,1
38,Kletterhütte Bockmattli,47.0994730,8.9503270,alpine_hut,10,,,,,https://www.bockmattli.ch/,,,1
1102,Kletterhütte Pardutz,47.02650700,9.778708000000000,wilderness_hut,,,,,,https://www.kcr-online.ch/,,,1
780,Klubhaus SC OG,47.38859300,8.591639000000001,wilderness_hut,45,,,permit,,https://www.sc-og-zuerich.ch/wp/vermietung/,required,,0
1635,Klushütte,47.7089490,8.61633200,chalet,,,,,,http://www.klushuette.ch/,,,1
676,Kohlplätzli,46.42583500,8.16245600000000,chalet,,,,,,,,,0
1410,Konkordia Hütte,46.50045700,8.053207000000000,alpine_hut,155,,,,Schweizer Alpenklub SAC,https://www.konkordiahuette.ch/,,,1
759,Kröntenhütte,46.80008300,8.575386999999999,alpine_hut,80,,,,SAC - CAS,https://www.kroentenhuette.com/,,,1
928,Kurs- und Ferienhaus Wartburg,47.6704160,9.044668000000000,chalet,,109,,,CEVI,https://www.wartburg.ch/,,,0
953,Küsnachter Haus,46.95864800,9.098438000000000,chalet,,,,,Reformierte Kirchgemeinde Küsnacht,,,,0
1291,L'A de Bran,46.23970500,7.518346000000000,alpine_hut,,,,,,https://www.cabaneladebran.ch/,,,0
129,L'Aiglon,46.13592,7.6245940,chalet,,,,,,,,,0
59,L'Aiguillette à la Singla CAS Bivouac,45.9414740,7.4540820,alpine_hut,12,,,,SAC - CAS,https://cas-chasseron.ch/,,,1
1673,L'Anémone,47.11746800,7.0113859999999999,chalet,,,,private,,,,,0
364,L'Argousier,46.0972480,7.2217100,chalet,,,,,,,,,0
324,L'Eclipse,46.2523410,7.5288120,chalet,,,,,,,,,0
389,L'Escapade,46.2560990,7.2769260,chalet,,,,,,,,,0
530,L'Hirondelle,46.1975360,7.4407000,chalet,,,,,,https://chalethirondelle.com,,,0
1389,L'Ondine,46.56665100,7.082168000000000,chalet,,,,,,https://www.viva-gruyere.ch/fr/maisons/londine/,,,0
706,L'Orée,46.870294000000001,6.7499099999999999,chalet,,,,,,,,,0
362,L'isiere,46.0938900,7.2360830,chalet,,,,,,,,,0
1227,La Balisa,46.6541440,7.243040000000000,alpine_hut,,,,,,,,,0
117,La Bouennaz,46.5798140,6.4028530,alpine_hut,,,,,,,,,0
752,La Cabane des Choucas,46.48304000,7.1202009999999998,alpine_hut,,,,,,,,,0
465,La Cabane à Joseph,46.3688250,6.8038370,wilderness_hut,,,,,,http://www.st-gingolph.com/documents/randoB1.pdf,,24.0/7,0
1026,La Cascade,46.5482660,6.542379000000000,wilderness_hut,,,,,Groupe Scoute de la Grande Ours,,,,0
78,La Casquette du Culan,46.3509200,7.1720930,chalet,,,,,,,,,0
1226,La Cheneau,46.4696830,7.1251429999999996,chalet,,,,,,,,,0
1073,La Chotte,46.4186130,6.951189000000000,wilderness_hut,,,,yes,,,,,0
971,La Cornette,47.130166000000003,7.033259000000000,chalet,,,,,,,,,0
284,La Dranse,46.0992950,7.229035,chalet,,,,,,,,,0
1719,La Five à Mayor,46.68979700,6.2997449999999997,wilderness_hut,,2,,yes,,,,,0
1558,La Fougère,47.15438900,7.166429000000000,chalet,,,,,,,,,0
63,La Grandsonnaz,46.8596320,6.5517900,chalet,,,,,,,,,0
1493,La Jonquille,47.16471200,6.9939049999999998,alpine_hut,,,,,CAS- Chasseral,https://cas-chasseral.ch/index.php/le-mazot-et-la-jonquille,,,1
365,La Maison du Plaisir,46.066623,6.9461760,chalet,,,,,,,,,0
1469,La Menée,47.04314000,6.8468679999999997,chalet,,,,,CAS section Neuchâteloise,,,,1
323,La Mijon,46.2521000,7.5289100,chalet,,,,,,,,,0
1354,La Palestine,46.675804999999997,6.306215000000000,alpine_hut,,,,,,,,,0
178,La Peule,45.8986150,7.1125850,alpine_hut,,,,,,,,,0
593,La Pezza,46.164457,8.6196190,chalet,,,,,Fabio,,required,,0
156,La Picotettaz,46.633944,6.3126570,chalet,,,,,,,,,0
1238,La Pinte des Mossettes,46.65355800,7.196412000000000,alpine_hut,,,,,,https://www.lapintedesmossettes.ch/,,,0
1039,La Planche,46.5087130,7.168467000000000,chalet,,18,,,,,yes,,0
1456,La Primevère,47.1488380,7.049522000000000,chalet,,,,,Amicale,,,,0
356,La Siesta,46.0986270,7.2200210,chalet,,,,,,,,,0
384,La Torre,46.1583820,9.0093030,chalet,,,,,,,,,0
997,La Vare,46.26179000,7.13788900,alpine_hut,,,,,,,,,0
288,La Vigne,46.1007300,7.2112570,chalet,,,,,Bramble Ski,,,,0
250,La Volga,46.0960010,7.2303060,chalet,,,,,,,,,0
1459,La cabane du Vieux Emosson,46.06246800,6.900352000000000,alpine_hut,,,,,,http://www.cabaneduvieux.ch,,,1
731,Laakerhof,46.386307,8.060178000000001,chalet,,,,,,,,,0
868,Lagerhaus Maria Sutcrestas,46.655913,8.71641300000000,chalet,,,,,,,,,0
869,Lagerhaus Vacanza,46.65570500,8.715528000000001,chalet,,,,,,,,,0
578,Laska,46.1074780,7.2259240,chalet,,,,,,,,,0
536,Lauteraarhütte,46.5700750,8.2221830,alpine_hut,28,,,,SAC Zofingen,https://www.lauteraarhuette.ch/,,,1
793,Le Bi Gîte,46.671990000000001,7.1902889999999999,alpine_hut,,,,,,,,,0
740,Le Bon Larron,47.027293999999998,6.9538929999999999,chalet,,,,,,,,,0
1036,Le Clos des Pierres,46.4821650,7.1992670,chalet,,,,,,,,,0
658,Le Colinet,46.2488800,7.4854230,chalet,,4,,,,http://moreauhupet.hopto.org/Moreauhupet/PhotosChaletItravers/Chalet%20Le%20colinet.htm,,,0
301,Le Darbay,46.0946830,7.2337690,chalet,,,,,,,,,0
1163,Le Dolent,45.92941000,7.096400000000000,chalet,,80,,,,https://www.dolent.ch/,,,0
1319,Le Grillet CAS,46.4746960,6.910705000000000,alpine_hut,,,,,CAS Jaman,https://www.cas-jaman.ch/content/chalet-le-grillet,,,1
863,Le Gros Plané,46.552872999999998,7.002857000000000,alpine_hut,,,,,,,,,0
85,Le Levant,46.6580180,6.2510650,chalet,,,,,,,,,0
697,Le Rachy,46.347805000000001,7.1433920000000004,chalet,,,,,,,,,0
1025,Le Ranch,46.5546560,6.534291000000000,wilderness_hut,30,,,permit,Groupe Scoute de la Grande Ours,https://www.grandeourse.ch/louer-le-ranch,required,,1
998,Le Richard,46.25839700,7.126771000000000,alpine_hut,,,,,,,,,0
257,Le Sagittaire,46.0933510,7.2303540,chalet,,,,,,,,,0
304,Le Sayeu,46.1023200,7.2286710,chalet,,,,,,,,,0
295,Le Sittelle,46.0976460,7.2341390,chalet,,,,,,,,,0
148,Le Ti,46.0969780,7.2337240,chalet,,,,,,,,,0
725,Le domaine de Monteret,46.4470980,6.176408000000000,chalet,,,,,,https://www.domainedemonteret.com/domainedemonteret,,,0
952,Leglerhütte,46.9274340,9.080090999999999,alpine_hut,54,,,,SAC - CAS,http://www.leglerhuette.ch,,,1
830,Les Allières,46.670006999999998,7.174320000000000,alpine_hut,,,,,,,,,0
867,"Les Amis de la Nature, La Serment",47.04630100,6.852904000000000,chalet,,,,,,,,,0
76,Les Bosquet,46.3552360,7.1503990,chalet,,,,,,,,,0
554,Les Cabanes du Mont,47.4506900,7.082327,chalet,,,,,,https://cabanes-du-mont.ch/,,,1
249,Les Charleys,46.0961650,7.2301940,chalet,,,,,,,,,0
360,Les Chevreuits,46.0938780,7.2308690,chalet,,,,,,,,,0
1633,Les Combes,46.92632600,6.991625000000000,wilderness_hut,,,,,,,,,0
1346,Les Dents Vertes,46.6157230,7.17155900,chalet,,,,,,https://www.viva-gruyere.ch/fr/maisons/les-dents-vertes/,,,1
555,Les Ecureuils,46.8292840,6.5394670,chalet,,,,,Armée du Salut,https://www.lesecureuils.info,,,1
576,Les Etoiles,46.1010280,7.2217950,chalet,,,,,,,,,0
37,Les Glaciers,46.135789,7.6271510,chalet,,,,,,,,,0
1313,Les Illars,46.8601220,6.561975000000000,alpine_hut,,,,,CAS Yverdon,,,,1
884,Les Laitalets,46.49587600,7.149001000000000,chalet,,,,,,,,,0
297,Les Lutins,46.0967410,7.2371100,chalet,,,,,,,,,0
1717,Les Mouilles,46.9235860,6.993244000000000,wilderness_hut,,,,,,,,,0
682,Les Petites Fauconnières,46.92257900,6.708053000000000,alpine_hut,,,,,,,,,0
185,Les Pralets,46.4981430,6.1679270,alpine_hut,,,,yes,,https://www.lespralets.ch;https://www.lagamelle.com/lespralets,recommended,,0
1312,Les Tempêteries,46.8572630,6.552818000000000,chalet,,,,,,,,,0
1124,Les Tâtris,46.553935000000003,6.527725000000000,wilderness_hut,35,,,permit,,https://bremblens.ch/locations.php,required,,1
167,Les Usillons,46.49091,6.7913620,chalet,,,,,,,,,0
1687,Leuca,46.32917700,7.71911600000000,chalet,,,,,,,,,0
408,Leutschachhütte SAC,46.7836790,8.6011710,alpine_hut,60,,,,SAC - CAS,http://www.leutschachhuette.ch,,,1
760,Leutschachhütte SAC Winterraum,46.783766999999997,8.600854000000000,wilderness_hut,6,,,,,,,,0
1315,Lidernenhütte SAC,46.93517,8.692633000000001,alpine_hut,87,,,,SAC - CAS,https://www.lidernen.ch/,,,1
254,Loco,46.102447,7.2356310,chalet,,,,,,,,,0
1477,Lohnerhütte SAC,46.47455700,7.5996790000000001,alpine_hut,18,,,,SAC - CAS,https://www.sac-wildstrubel.ch/,,,1
153,Luchelette,46.175138,7.477897,chalet,,,,,,,,,0
1302,Lufthütte,47.0560360,8.92282800000000,alpine_hut,,20,,,Jugend SAC Bachtel,https://www.jo-bachtel.ch/lufthuette.php,,,1
428,Lui d'Aout,46.1934500,7.1387080,alpine_hut,,,,,,,,,0
1012,Lämmerenhütte,46.40029400,7.574486000000000,alpine_hut,96,,,,SAC,https://www.laemmerenhuette.ch/,,,1
945,Läntahütte SAC,46.54157500,9.04178400,alpine_hut,33,,,,SAC - CAS,http://www.laentahuette.ch,,,1
